name;comment;element_type;country;lat;long;exact;start;stop;source;capacity_E_MW;capacity_TH_MW;fuel1;fuel2;fuel3;fuel4;owner;gppd_idnr;url;geolocation_source;year_of_capacity_data;generation_gwh_2013;generation_gwh_2014;generation_gwh_2015;generation_gwh_2016;estimated_generation_gwh
[str];[str];[str];[str];[deg];[deg];[boolean];[yyyy];[yyyy];[str];[double];[double];[str];[str];[str];[str];[str];[str];[str];[str];[yyyy];[GWh];[GWh];[GWh];[GWh];[GWh]
Simmering;;{J};Austria;48.1815;16.4334;1;2009;;Wien Energie;1272;;Gas;;;;Wien Energie;WRI1019147;http://www.wienenergie.at/eportal3/ep/channelView.do/channelId/-51719;WRI;;;;2429.57;;3323.692308
Timelkam;;{J};Austria;48.0122;13.5895;1;2008;;Energie AG;400;;Gas;;;;Energie AG Ober«Ùsterreich;WRI1019163;http://www.energieag.at/eag_at/resources/595372694787137362_954827377953737077_8fJ7tSkK.pdf;GEODB;;;;452;;1045.18626
Donaustadt;;{J};Austria;48.2;16.4633;1;2001;;Wien Energie;395;;Gas;;;;Wien Energie;WRI1019146;http://www.wienenergie.at/eportal3/ep/channelView.do/channelId/-51721;WRI;;;;1073.51;;1032.121432
DROGENBOS TGV;;{J};Belgium;50.8023;4.299;1;;;ELIA Belgian Grid Operator;465;;Gas;;;;;WRI1002226;http://publications.elia.be/upload/ProductionParkOverview.html?TS=20120416193815;GEODB;;;;790.253;;2326.567768
HERDERSBRUG STEG;;{J};Belgium;51.2629;3.2112;1;1998;;ELIA Belgian Grid Operator;465;;Gas;;;;;WRI1002234;http://publications.elia.be/upload/ProductionParkOverview.html?TS=20120416193815;GEODB;;;;929.103;;2326.567768
Amercoeur 1 R TGV;;{J};Belgium;50.4304;4.3955;1;1994;;ELIA Belgian Grid Operator;451;;Gas;;;;;WRI1002207;http://publications.elia.be/upload/ProductionParkOverview.html?TS=20120416193815;GEODB;;;;2408.374;;2256.520566
T-power Beringen;;{J};Belgium;51.0586;5.1056;1;2011;;ELIA Belgian Grid Operator;422;;Gas;;;;;WRI1002271;http://publications.elia.be/upload/ProductionParkOverview.html?TS=20120416193815;WRI;;;;2203.896;;2111.422792
Marcinelle Energie (Carsid);;{J};Belgium;50.4138;4.4067;1;2011;;ELIA Belgian Grid Operator;405;;Gas;;;;;WRI1002258;http://publications.elia.be/upload/ProductionParkOverview.html?TS=20120416193815;GEODB;;;;1150.449;;2026.365475
RINGVAART STEG;;{J};Belgium;51.1049;3.7257;1;1998;;ELIA Belgian Grid Operator;357;;Gas;;;;;WRI1002264;http://publications.elia.be/upload/ProductionParkOverview.html?TS=20120416193815;GEODB;;;;1591.791;;1786.203641
SAINT-GHISLAIN STEG;;{J};Belgium;50.4719;3.8248;1;2000;;ELIA Belgian Grid Operator;350;;Gas;;;;;WRI1002267;http://publications.elia.be/upload/ProductionParkOverview.html?TS=20120416193815;GEODB;;;;1328.093;;1751.18004
Zelzate 2 Knippegroen;;{J};Belgium;51.1587;3.8068;1;2010;;ELIA Belgian Grid Operator;315;;Gas;;;;;WRI1002288;http://publications.elia.be/upload/ProductionParkOverview.html?TS=20120416193815;GEODB;;;;2084.472;;1576.062036
INESCO WKK;;{J};Belgium;51.2198;4.3266;1;;;ELIA Belgian Grid Operator;138;;Gas;;;;;WRI1002244;http://publications.elia.be/upload/ProductionParkOverview.html?TS=20120416193815;CARMA;;;;695.712;;690.4652731
ANGLEUR TG 41;;{J};Belgium;50.6177;5.5837;1;;;ELIA Belgian Grid Operator;128;;Gas;;;;;WRI1002208;http://publications.elia.be/upload/ProductionParkOverview.html?TS=20120416193815;GEODB;;;;;;640.4315577
LANGERLO 4 REPOWERING;;{J};Belgium;50.934;5.4784;1;;;ELIA Belgian Grid Operator;86;;Gas;;;;;WRI1002255;http://publications.elia.be/upload/ProductionParkOverview.html?TS=20120416193815;CARMA;;;;;;430.2899528
HAM-GENT WKK;;{J};Belgium;51.05;3.7167;1;2006;;ELIA Belgian Grid Operator;52;;Gas;;;;;WRI1002231;http://publications.elia.be/upload/ProductionParkOverview.html?TS=20120416193815;CARMA;;;;;;260.1753203
DROGENBOS GT0;;{J};Belgium;50.8023;4.299;1;;;ELIA Belgian Grid Operator;48;;Gas;;;;;WRI1002225;http://publications.elia.be/upload/ProductionParkOverview.html?TS=20120416193815;GEODB;;;;;;240.1618341
Aalst Syral GT;;{J};Belgium;50.936;4.0355;1;;;ELIA Belgian Grid Operator;43;;Gas;;;;;WRI1002204;http://publications.elia.be/upload/ProductionParkOverview.html?TS=20120416193815;CARMA;;;;;;215.1449764
Zwijndrecht Lanxess GT;;{J};Belgium;51.2382;4.3408;1;;;ELIA Belgian Grid Operator;43;;Gas;;;;;WRI1002290;http://publications.elia.be/upload/ProductionParkOverview.html?TS=20120416193815;CARMA;;;;;;215.1449764
Zeebrugge 2 Fluxys;;{J};Belgium;51.329;3.1819;1;;;ELIA Belgian Grid Operator;40;;Gas;;;;;WRI1002285;http://publications.elia.be/upload/ProductionParkOverview.html?TS=20120416193815;CARMA;;;;;;200.1348618
Beveren Ineos Phenolchemie;;{J};Belgium;51.2119;4.2563;1;;;ELIA Belgian Grid Operator;22.8;;Gas;;;;;WRI1002214;http://publications.elia.be/upload/ProductionParkOverview.html?TS=20120416193815;CARMA;;;;;;114.0768712
Zwijndrecht Lanxess ST;;{J};Belgium;51.2382;4.3408;1;;;ELIA Belgian Grid Operator;15;;Gas;;;;;WRI1002291;http://publications.elia.be/upload/ProductionParkOverview.html?TS=20120416193815;CARMA;;;;;;75.05057316
Aalst Syral ST;;{J};Belgium;50.936;4.0355;1;;;ELIA Belgian Grid Operator;5;;Gas;;;;;WRI1002205;http://publications.elia.be/upload/ProductionParkOverview.html?TS=20120416193815;CARMA;;;;;;25.01685772
DROGENBOS DM 51;;{J};Belgium;50.8023;4.299;1;;;ELIA Belgian Grid Operator;5;;Gas;;;;;WRI1002224;http://publications.elia.be/upload/ProductionParkOverview.html?TS=20120416193815;GEODB;;;;;;25.01685772
Zagreb Te-To CHP Power Plant Croatia;;{J};Croatia;45.7816;16.0169;1;;;GEODB;328;;Gas;;;;;GEODB0044823;http://globalenergyobservatory.org;GEODB;2017;;;;;564.895153
Osijek TE-TO CHP Power Plant Croatia;;{J};Croatia;45.542;18.7449;1;;;GEODB;89;;Gas;;;;;GEODB0044826;http://globalenergyobservatory.org;GEODB;2017;;;;;153.2794775
Zagreb El-To CHP Power Plant Croatia;;{J};Croatia;45.8069;15.9498;1;;;GEODB;86.8;;Gas;;;;;GEODB0044824;http://globalenergyobservatory.org;GEODB;2017;;;;;149.4905466
Jertovec CCGT Power Plant Croatia;;{J};Croatia;46.0386;16.1814;1;;;GEODB;78;;Gas;;;;;GEODB0044825;http://globalenergyobservatory.org;GEODB;2017;;;;;134.334823
Skaerbaekvaerket;;{J};Denmark;55.513;9.6128;1;1997;;ENTSOE;392;;Gas;;;;;WRI1022034;https://transparency.entsoe.eu/generation/r2/installedCapacityPerProductionUnit/show;WRI;;;;601.834;;1438.935201
H.C. «ü”?rsted;;{J};Denmark;55.6761;12.5683;1;;;Dong Energy;98;;Gas;;;;;WRI1022043;http://www.dongenergy.com/en/our-business/bioenergy-thermal-power/where-we-operate;GEODB;;;;;;359.7338004
Svanem«ü∂˜lle;;{J};Denmark;55.7131;12.588;1;1985;;Dong Energy;81;;Gas;;;;;WRI1022045;http://www.dongenergy.com/en/our-business/bioenergy-thermal-power/where-we-operate;GEODB;;;;;;297.3309982
Kiisa AREJ 2;;{J};Estonia;59.2439;24.7064;1;;;ENTSOE;250;;Gas;;;;;WRI1022394;https://transparency.entsoe.eu/generation/r2/installedCapacityPerProductionUnit/show;WRI;;;;;;40.78014184
IRU Elektrijaam;;{J};Estonia;59.4514;24.9246;1;;;ENTSOE;173;;Gas;;;;;WRI1022396;https://transparency.entsoe.eu/generation/r2/installedCapacityPerProductionUnit/show;GEODB;;;;;;28.21985816
Vuosaari B;;{J};Finland;60.2199;25.1692;1;;;Finnish Energy Authority;485;;Gas;;;;Helsingin Energia;WRI1002594;http://www.energiavirasto.fi/en/voimalaitosrekisteri;GEODB;;;;;;1391.655839
Naantali  G1  2 ja 3;;{J};Finland;60.459;22.0545;1;;;Finnish Energy Authority;290;;Gas;;;;Turun Seudun Energiantuotanto Oy;WRI1002466;http://www.energiavirasto.fi/en/voimalaitosrekisteri;CARMA;;;;;;832.12411
Naistenlahti 2;;{J};Finland;61.4991;23.7871;1;;;Finnish Energy Authority;191.2;;Gas;;;;Tampereen S«œhk«Ùlaitos;WRI1002467;http://www.energiavirasto.fi/en/voimalaitosrekisteri;CARMA;;;;;;548.6280339
Martinlaakso;;{J};Finland;60.2833;24.8364;1;;;Finnish Energy Authority;171.7;;Gas;;;;Vantaan Energia Oy;WRI1002450;http://www.energiavirasto.fi/en/voimalaitosrekisteri;GEODB;;;;;;492.674861
Vuosaari A;;{J};Finland;60.2199;25.1692;1;;;Finnish Energy Authority;163;;Gas;;;;Helsingin Energia;WRI1002593;http://www.energiavirasto.fi/en/voimalaitosrekisteri;GEODB;;;;;;467.7111377
Lielahti;;{J};Finland;61.4991;23.7871;1;;;Finnish Energy Authority;142;;Gas;;;;Tampereen S«œhk«Ùlaitos;WRI1002442;http://www.energiavirasto.fi/en/voimalaitosrekisteri;CARMA;;;;;;407.4538745
Kirkniemi;;{J};Finland;60.1843;23.946;1;;;Finnish Energy Authority;128;;Gas;;;;Sappi Finland Oy;WRI1002397;http://www.energiavirasto.fi/en/voimalaitosrekisteri;CARMA;;;;;;367.2823658
Porvoo kt 2;;{J};Finland;60.3067;25.5506;1;;;Finnish Energy Authority;120.6;;Gas;;;;Neste Oil Oy;WRI1002502;http://www.energiavirasto.fi/en/voimalaitosrekisteri;CARMA;;;;;;346.048854
Nokia kombi;;{J};Finland;61.4667;23.5;1;;;Finnish Energy Authority;72;;Gas;;;;Lepp«œkosken S«œhk«Ù Oy;WRI1002470;http://www.energiavirasto.fi/en/voimalaitosrekisteri;CARMA;;;;;;206.5963308
Joensuu;;{J};Finland;64.6667;27.1333;1;;;Finnish Energy Authority;68;;Gas;;;;Fortum Power and Heat Oy;WRI1002357;http://www.energiavirasto.fi/en/voimalaitosrekisteri;CARMA;;;;;;195.1187568
Myllykoski vp;;{J};Finland;65.9667;29.1833;1;;;Finnish Energy Authority;32.8;;Gas;;;;UPM;WRI1002461;http://www.energiavirasto.fi/en/voimalaitosrekisteri;CARMA;;;;;;94.11610623
Lappeenranta kombi;;{J};Finland;61.0587;28.1887;1;;;Finnish Energy Authority;26.3;;Gas;;;;UPM-Kymmene Oyj;WRI1002433;http://www.energiavirasto.fi/en/voimalaitosrekisteri;CARMA;;;;;;75.46504859
Tako T2 ja T5;;{J};Finland;61.4991;23.7871;1;;;Finnish Energy Authority;16.5;;Gas;;;;Mets«œ Board Oyj;WRI1002554;http://www.energiavirasto.fi/en/voimalaitosrekisteri;CARMA;;;;;;47.34499246
Ikaalinen;;{J};Finland;61.7695;23.0658;1;;;Finnish Energy Authority;6;;Gas;;;;Lepp«œkosken S«œhk«Ù Oy;WRI1002348;http://www.energiavirasto.fi/en/voimalaitosrekisteri;CARMA;;;;;;17.2163609
Koneharju kt;;{J};Finland;60.9827;25.6615;1;;;Finnish Energy Authority;4.6;;Gas;;;;Lahti Energia Oy;WRI1002408;http://www.energiavirasto.fi/en/voimalaitosrekisteri;CARMA;;;;;;13.19921002
Kerava;;{J};Finland;60.4034;25.105;1;;;Finnish Energy Authority;3.7;;Gas;;;;Keravan Energia Oy;WRI1002391;http://www.energiavirasto.fi/en/voimalaitosrekisteri;CARMA;;;;;;10.61675589
Haapavesi;;{J};Finland;64.1333;25.3667;1;;;Finnish Energy Authority;2.7;;Gas;;;;Vapo Oy;WRI1002322;http://www.energiavirasto.fi/en/voimalaitosrekisteri;CARMA;;;;;;7.747362403
MARTIGUES PONTEAU;;{J};France;43.3585;5.0216;1;;;RTE Transmission Operator;930;;Gas;;;;;WRI1002743;http://clients.rte-france.com/lang/an/visiteurs/vie/prod/parc_reference.jsp;GEODB;;;;;;2365.955662
EMILE HUCHET;;{J};France;49.1526;6.7018;1;;;RTE Transmission Operator;826;;Gas;;;;;WRI1002724;http://clients.rte-france.com/lang/an/visiteurs/vie/prod/parc_reference.jsp;WRI;;;;;;2101.375674
DK6;;{J};France;51.0482;2.3255;1;;;RTE Transmission Operator;796;;Gas;;;;;WRI1002722;http://clients.rte-france.com/lang/an/visiteurs/vie/prod/parc_reference.jsp;GEODB;;;;;;2025.054524
BOUCHAIN 7;;{J};France;50.2987;3.3156;1;;;RTE Transmission Operator;575;;Gas;;;;;WRI1002697;http://clients.rte-france.com/lang/an/visiteurs/vie/prod/parc_reference.jsp;GEODB;;;;;;1462.822049
BLENOD 5;;{J};France;48.8681;6.0849;1;;;RTE Transmission Operator;427;;Gas;;;;;WRI1002695;http://clients.rte-france.com/lang/an/visiteurs/vie/prod/parc_reference.jsp;WRI;;;;;;1086.304374
COMBIGOLFE;;{J};France;43.4072;4.8676;1;;;RTE Transmission Operator;425;;Gas;;;;;WRI1002711;http://clients.rte-france.com/lang/an/visiteurs/vie/prod/parc_reference.jsp;GEODB;;;;;;1081.216297
Croix-de-Metz;;{J};France;48.675;5.8917;1;;;RTE Transmission Operator;413;;Gas;;;;;WRI1002715;http://clients.rte-france.com/lang/an/visiteurs/vie/prod/parc_reference.jsp;GEODB;;;;;;1050.687837
Pont-sur-Sambre;;{J};France;50.2308;3.8653;1;;;RTE Transmission Operator;412;;Gas;;;;;WRI1002756;http://clients.rte-france.com/lang/an/visiteurs/vie/prod/parc_reference.jsp;GEODB;;;;;;1048.143799
GENNEVILLIERS 1;;{J};France;48.9333;2.3;1;;;RTE Transmission Operator;203;;Gas;;;;;WRI1002731;http://clients.rte-france.com/lang/an/visiteurs/vie/prod/parc_reference.jsp;CARMA;;;;;;516.4397843
Gersteinwerk;;{J};Germany;51.6725;7.7099;1;;;Open Power System Data;2004.5;;Gas;;;;RWE Generation SE;WRI1005694;http://data.open-power-system-data.org/;Open Power System Data;;;;;2524.903;5109.24837
Emsland;;{J};Germany;52.4819;7.3067;1;;;Open Power System Data;1837;;Gas;;;;RWE Generation SE;WRI1005658;http://data.open-power-system-data.org/;Open Power System Data;;;;;1285.491;4682.309432
Gemeinschaftskraftwerk Irsching;;{J};Germany;48.767;11.58;1;;;Open Power System Data;1391;;Gas;;;;Gemeinschaftskraftwerk Irsching GmbH;WRI1005691;http://data.open-power-system-data.org/;Open Power System Data;;;;;560.17;3545.504856
Knapsack Natural Gas I;;{J};Germany;50.8617;6.8424;1;;;Open Power System Data;1230;;Gas;;;;Statkraft Markets GmbH;WRI1005865;http://data.open-power-system-data.org/;Open Power System Data;;;;;123.58;3135.133697
Trianel Natural Gaskraftwerk;;{J};Germany;51.6739;7.9291;1;2008;;Open Power System Data;838;;Gas;;;;Trianel Natural Gaskraftwerk Hamm GmbH & Co. KG;WRI1006074;http://data.open-power-system-data.org/;Open Power System Data;;;;;;2135.969137
Franken 1;;{J};Germany;49.4208;11.0077;1;;;Open Power System Data;823;;Gas;;;;E.ON Kraftwerke GmbH;WRI1005681;http://data.open-power-system-data.org/;Open Power System Data;;;;;397.746;2097.735799
Charlottenburg;;{J};Germany;52.5219;13.3111;1;1975;;Open Power System Data;633;;Gas;;;;Vattenfall Europe W«œrme AG;WRI1005624;http://data.open-power-system-data.org/;Open Power System Data;;;;;;1613.446854
Huckingen;;{J};Germany;51.3679;6.7167;1;;;Open Power System Data;606;;Gas;;;;H«¨ttenwerke Krupp Mannesmann GmbH;WRI1005830;http://data.open-power-system-data.org/;Open Power System Data;;;;;2165.141;1544.626846
Dormagen;;{J};Germany;51.0791;6.8287;1;2000;;Open Power System Data;586.3;;Gas;;;;RWE Generation SE;WRI1005636;http://data.open-power-system-data.org/;Open Power System Data;;;;;2193.385;1494.413729
Kraftwerk Mitte;;{J};Germany;49.5137;8.4316;1;2005;;Open Power System Data;490;;Gas;;;;BASF SE;WRI1005888;http://data.open-power-system-data.org/;Open Power System Data;;;;;1597.095;1248.9557
S«¨d GT 61;;{J};Germany;48.1351;11.582;1;2004;;Open Power System Data;444.6;;Gas;;;;SWM Services GmbH;WRI1006064;http://data.open-power-system-data.org/;Open Power System Data;;;;;;1133.236131
Mitte;;{J};Germany;52.5117;13.4209;1;1996;;Open Power System Data;444;;Gas;;;;Vattenfall Europe W«œrme AG;WRI1005948;http://data.open-power-system-data.org/;Open Power System Data;;;;;;1131.706798
Kraftwerk Mainz;;{J};Germany;50.0264;8.2379;1;2001;;Open Power System Data;434.2;;Gas;;;;Kraftwerke Mainz-Wiesbaden AG;WRI1005886;http://data.open-power-system-data.org/;Open Power System Data;;;;;552.941;1106.727684
Lichterfelde;;{J};Germany;52.4252;13.3098;1;;;Open Power System Data;432;;Gas;;;;Vattenfall Europe W«œrme AG;WRI1005934;http://data.open-power-system-data.org/;Open Power System Data;;;;;423.631;1101.120128
HKW Niehl 2;;{J};Germany;50.9749;6.988;1;2005;;Open Power System Data;413;;Gas;;;;RheinEnergie AG;WRI1005803;http://data.open-power-system-data.org/;Open Power System Data;;;;;55.48;1052.691233
Kraftwerk S«¨d;;{J};Germany;49.5136;8.4316;1;1997;;Open Power System Data;390;;Gas;;;;BASF SE;WRI1005895;http://data.open-power-system-data.org/;Open Power System Data;;;;;;994.066782
Duisburg Hamborn;;{J};Germany;51.491;6.7275;1;1958;;Open Power System Data;385;;Gas;;;;ThyssenKrupp Steel Europe AG;WRI1005641;http://data.open-power-system-data.org/;Open Power System Data;;;;;;981.322336
Rheinhafen-Dampfkraftwerk;;{J};Germany;49.013;8.304;1;1998;;Open Power System Data;353;;Gas;;;;EnBW Energie Baden-W«¨rttemberg AG;WRI1006025;http://data.open-power-system-data.org/;WRI;;;;;172.334;899.7578821
Huntorf;;{J};Germany;53.1897;8.4087;1;1978;;Open Power System Data;321;;Gas;;;;E.ON Kraftwerke GmbH;WRI1005831;http://data.open-power-system-data.org/;Open Power System Data;;;;;0.97;818.1934282
Duisburg Ruhrort;;{J};Germany;51.4597;6.7306;1;;;Open Power System Data;315;;Gas;;;;ThyssenKrupp Steel Europe AG;WRI1005642;http://data.open-power-system-data.org/;Open Power System Data;;;;;;802.9000931
Thyrow;;{J};Germany;52.2302;13.3019;1;;;Open Power System Data;296;;Gas;;;;Vattenfall Europe Generation AG;WRI1006068;http://data.open-power-system-data.org/;Open Power System Data;;;;;;754.4711986
Natural Gasblock;;{J};Germany;51.2214;6.7313;1;1976;;Open Power System Data;293;;Gas;;;;Stadtwerke D«¨sseldorf AG;WRI1005968;http://data.open-power-system-data.org/;Open Power System Data;;;;;;746.8245311
HKW III/B;;{J};Germany;51.3907;6.7478;1;2005;;Open Power System Data;274;;Gas;;;;Stadtwerke Duisburg AG;WRI1005793;http://data.open-power-system-data.org/;Open Power System Data;;;;;223.406;698.3956366
HKW Dresden-Nossener Br«¨cke;;{J};Germany;51.0421;13.7086;1;1995;;Open Power System Data;263;;Gas;;;;DREWAG Stadtwerke Dresden GmbH;WRI1005780;http://data.open-power-system-data.org/;Open Power System Data;;;;;1222.775;670.3578555
HKW Halle Trotha;;{J};Germany;51.481;11.9643;1;;;Open Power System Data;254;;Gas;;;;EVH GmbH;WRI1005789;http://data.open-power-system-data.org/;Open Power System Data;;;;;;647.4178529
GKL;;{J};Germany;52.3729;9.7142;1;;;Open Power System Data;230;;Gas;;;;Stadtwerke Hannover AG;WRI1005698;http://data.open-power-system-data.org/;Open Power System Data;;;;;134.167;586.2445124
Heizkraftwerk Hagen-Kabel;;{J};Germany;51.411;7.4917;1;1980;;Open Power System Data;230;;Gas;;;;Mark-E AG;WRI1005746;http://data.open-power-system-data.org/;Open Power System Data;;;;;179.924;586.2445124
Natural Gas Turbine #6;;{J};Germany;51.2212;6.7319;1;;;Open Power System Data;217.8;;Gas;;;;Stadtwerke D«¨sseldorf AG;WRI1005706;http://data.open-power-system-data.org/;Open Power System Data;;;;;;555.1480644
KW Kirchlengern;;{J};Germany;52.1951;8.6482;1;1980;;Open Power System Data;201.5;;Gas;;;;Energieservice Westfalen Weser GmbH;WRI1005909;http://data.open-power-system-data.org/;Open Power System Data;;;;;;513.6011707
HKW Jena;;{J};Germany;50.8969;11.5857;1;1996;;Open Power System Data;182;;Gas;;;;Th«¨ringer Energie AG;WRI1005794;http://data.open-power-system-data.org/;Open Power System Data;;;;;;463.8978316
Dampfkraftwerk BGH - O1;;{J};Germany;48.1835;12.8531;1;2001;;Open Power System Data;178;;Gas;;;;Wacker Chemie AG;WRI1005626;http://data.open-power-system-data.org/;Open Power System Data;;;;;;453.7022748
Dow Stade;;{J};Germany;53.6519;9.5079;1;2014;;Open Power System Data;173;;Gas;;;;Dow Deutschland Anlagengesellschaft mbH;WRI1005639;http://data.open-power-system-data.org/;Open Power System Data;;;;;;440.9578289
Heizkraftwerk Leipzig-Nord;;{J};Germany;51.3512;12.3784;1;1996;;Open Power System Data;167;;Gas;;;;Stadtwerke Leipzig GmbH;WRI1005751;http://data.open-power-system-data.org/;Open Power System Data;;;;;;425.6644938
Kirchm«Ùser;;{J};Germany;52.3942;12.4181;1;1994;;Open Power System Data;160;;Gas;;;;E.ON Kraftwerke GmbH;WRI1005862;http://data.open-power-system-data.org/;Open Power System Data;;;;;;407.8222695
Heizkraftwerk 2;;{J};Germany;50.0918;8.5311;1;;;Open Power System Data;152;;Gas;;;;Infraserv GmbH & Co. H«Ùchst KG;WRI1005733;http://data.open-power-system-data.org/;Open Power System Data;;;;;;387.431156
Ahrensfelde;;{J};Germany;52.5895;13.5587;1;1990;;Open Power System Data;150;;Gas;;;;Vattenfall Europe Generation AG;WRI1005574;http://data.open-power-system-data.org/;Open Power System Data;;;;;;382.3333777
HKW Sandreuth;;{J};Germany;49.4386;11.0606;1;2005;;Open Power System Data;150;;Gas;;;;N-ERGIE AG;WRI1005810;http://data.open-power-system-data.org/;Open Power System Data;;;;;;382.3333777
Heizkraftwerk Gera-Nord;;{J};Germany;50.9076;12.061;1;1996;;Open Power System Data;148;;Gas;;;;Energieversorgung Gera GmbH;WRI1005744;http://data.open-power-system-data.org/;Open Power System Data;;;;;;377.2355993
Kraftwerk III;;{J};Germany;51.6804;7.0969;1;;;Open Power System Data;139;;Gas;;;;Evonik Degussa GmbH;WRI1005884;http://data.open-power-system-data.org/;Open Power System Data;;;;;;354.2955966
HKW-Mitte;;{J};Germany;52.2786;10.5147;1;;;Open Power System Data;137.3;;Gas;;;;Braunschweiger Versorgungs-AG & Co. KG;WRI1005822;http://data.open-power-system-data.org/;Open Power System Data;;;;;;349.962485
ILK-GuD;;{J};Germany;51.2998;12.0193;1;1994;;Open Power System Data;135.7;;Gas;;;;InfraLeuna GmbH;WRI1005839;http://data.open-power-system-data.org/;Open Power System Data;;;;;;345.8842623
GuD-Ikw Sta«?furt;;{J};Germany;51.8655;11.5738;1;1996;;Open Power System Data;132;;Gas;;;;KWG-Kraftwerksgesellschaft Sta«?furt mbH;WRI1005723;http://data.open-power-system-data.org/;Open Power System Data;;;;;;336.4533724
S«¨d DT60;;{J};Germany;48.1351;11.582;1;2004;;Open Power System Data;127.6;;Gas;;;;SWM Services GmbH;WRI1006063;http://data.open-power-system-data.org/;Open Power System Data;;;;;;325.2382599
GuD Tiefstack;;{J};Germany;53.5267;10.0658;1;2009;;Open Power System Data;127;;Gas;;;;Vattenfall Europe W«œrme Aktiengesellschaft;WRI1005718;http://data.open-power-system-data.org/;Open Power System Data;;;;;;323.7089264
HKW Niederrad;;{J};Germany;50.0856;8.6279;1;2005;;Open Power System Data;126;;Gas;;;;Mainova AG;WRI1005802;http://data.open-power-system-data.org/;Open Power System Data;;;;;;321.1600372
GuD Schwarzheide;;{J};Germany;51.4762;13.8891;1;1994;;Open Power System Data;122;;Gas;;;;BASF Schwarzheide GmbH;WRI1005717;http://data.open-power-system-data.org/;Open Power System Data;;;;;;310.9644805
Heizkraftwerke an der Friedensbr«¨cke;;{J};Germany;49.8;9.9231;1;;;Open Power System Data;122;;Gas;;;;Heizkraftwerk W«¨rzburg GmbH;WRI1005763;http://data.open-power-system-data.org/;Open Power System Data;;;;;;310.9644805
GuD-Anlage R«¨sselsheim;;{J};Germany;49.992;8.4141;1;1999;;Open Power System Data;112.1;;Gas;;;;Adam Opel AG;WRI1005721;http://data.open-power-system-data.org/;Open Power System Data;;;;;;285.7304776
Wintershall;;{J};Germany;50.894;9.9972;1;1967;;Open Power System Data;109.5;;Gas;;;;K+S AG;WRI1006146;http://data.open-power-system-data.org/;Open Power System Data;;;;;;279.1033657
HKW Erfurt-Ost;;{J};Germany;50.9848;11.0299;1;;;Open Power System Data;109.1;;Gas;;;;SWE Energie GmbH;WRI1005783;http://data.open-power-system-data.org/;Open Power System Data;;;;;;278.08381
GuD Marienehe;;{J};Germany;54.1255;12.0819;1;1996;;Open Power System Data;108;;Gas;;;;Stadtwerke Rostock AG;WRI1005716;http://data.open-power-system-data.org/;Open Power System Data;;;;;;275.2800319
HKW Merkenich (Natural Gas);;{J};Germany;51.0178;6.9643;1;2004;;Open Power System Data;108;;Gas;;;;RheinEnergie AG;WRI1005801;http://data.open-power-system-data.org/;Open Power System Data;;;;;142.445;275.2800319
GuD Bitterfeld;;{J};Germany;51.6257;12.327;1;2000;;Open Power System Data;106;;Gas;;;;envia THERM GmbH;WRI1005713;http://data.open-power-system-data.org/;Open Power System Data;;;;;;270.1822536
KWH;;{J};Germany;52.3667;9.7167;1;1975;;Open Power System Data;102;;Gas;;;;Stadtwerke Hannover AG;WRI1005919;http://data.open-power-system-data.org/;Open Power System Data;;;;;6.21;259.9866968
Heizkraftwerk Hafen;;{J};Germany;51.9501;7.6413;1;2005;;Open Power System Data;100.2;;Gas;;;;Stadtwerke M«¨nster GmbH;WRI1005745;http://data.open-power-system-data.org/;Open Power System Data;;;;;;255.3986963
GuD;;{J};Germany;51.2214;6.7313;1;2000;;Open Power System Data;100;;Gas;;;;Stadtwerke D«¨sseldorf AG;WRI1005710;http://data.open-power-system-data.org/;Open Power System Data;;;;;;254.8889185
Obernburg;;{J};Germany;49.8293;9.1482;1;;;Open Power System Data;100;;Gas;;;;Kraftwerk Obernburg GmbH;WRI1005988;http://data.open-power-system-data.org/;Open Power System Data;;;;;;254.8889185
HKW West;;{J};Germany;50.0984;8.6531;1;1994;;Open Power System Data;99;;Gas;;;;Mainova AG;WRI1005816;http://data.open-power-system-data.org/;Open Power System Data;;;;;;252.3400293
Kraftwerk Plattling;;{J};Germany;48.7874;12.8825;1;2010;;Open Power System Data;97.9;;Gas;;;;Daimler AG / UPM GmbH;WRI1005891;http://data.open-power-system-data.org/;Open Power System Data;;;;;;249.5362512
ADS-Anlage;;{J};Germany;50.0918;8.5311;1;2012;;Open Power System Data;96.5;;Gas;;;;Infraserv GmbH & Co. H«Ùchst KG;WRI1005572;http://data.open-power-system-data.org/;Open Power System Data;;;;;;245.9678063
Heizkraftwerk Karlstra«?e 2;;{J};Germany;50.7338;7.0805;1;2013;;Open Power System Data;95;;Gas;;;;Energie- und Wasserversorgung Bonn/Rhein-Sieg GmbH;WRI1005749;http://data.open-power-system-data.org/;Open Power System Data;;;;;;242.1444725
Heizkraftwerk Sindelfingen;;{J};Germany;48.6972;8.9992;1;;;Open Power System Data;95;;Gas;;;;Daimler AG;WRI1005758;http://data.open-power-system-data.org/;Open Power System Data;;;;;;242.1444725
GTKW Darmstadt;;{J};Germany;49.8849;8.6501;1;2013;;Open Power System Data;94.6;;Gas;;;;HEAG S«¨dhessische Energie AG (HSE);WRI1005709;http://data.open-power-system-data.org/;Open Power System Data;;;;;;241.1249169
Holthausen;;{J};Germany;51.1756;6.838;1;1948;;Open Power System Data;84;;Gas;;;;Henkel AG & Co.KGaA;WRI1005829;http://data.open-power-system-data.org/;Open Power System Data;;;;;;214.1066915
HKW Barmen;;{J};Germany;51.2689;7.2003;1;2005;;Open Power System Data;82;;Gas;;;;WSW Energie & Wasser AG;WRI1005775;http://data.open-power-system-data.org/;Open Power System Data;;;;;;209.0089131
HKW Potsdam-S«¨d;;{J};Germany;52.3661;13.1125;1;1996;;Open Power System Data;81.8;;Gas;;;;Energie und Wasser Potsdam GmbH;WRI1005807;http://data.open-power-system-data.org/;Open Power System Data;;;;;;208.4991353
S«¨d DT1;;{J};Germany;48.1351;11.582;1;1980;;Open Power System Data;79.7;;Gas;;;;SWM Services GmbH;WRI1006062;http://data.open-power-system-data.org/;Open Power System Data;;;;;;203.146468
GuD Baunatal  VW Werksgel«œnde;;{J};Germany;51.2531;9.4379;1;2013;;Open Power System Data;78;;Gas;;;;Volkswagen AG;WRI1005712;http://data.open-power-system-data.org/;Open Power System Data;;;;;;198.8133564
GuD-HKW Neubrandenburg;;{J};Germany;53.5745;13.2951;1;1997;;Open Power System Data;75;;Gas;;;;Neubrandenburger Stadtwerke GmbH / VASA Kraftwerkepool GmbH und Co. KG;WRI1005722;http://data.open-power-system-data.org/;Open Power System Data;;;;;;191.1666888
BP Werk Lingen;;{J};Germany;52.5606;7.2952;1;1996;;Open Power System Data;66;;Gas;;;;BP Europa SE;WRI1005617;http://data.open-power-system-data.org/;Open Power System Data;;;;;;168.2266862
Industriekraftwerk Bernburg (IKB);;{J};Germany;51.8012;11.7544;1;1994;;Open Power System Data;66;;Gas;;;;Solvay Chemicals GmbH;WRI1005841;http://data.open-power-system-data.org/;Open Power System Data;;;;;;168.2266862
Heizkraftwerk Altbach/Deizisau (Natural Gas);;{J};Germany;48.7176;9.3749;1;;;Open Power System Data;65;;Gas;;;;EnBW Energie Baden-W«¨rttemberg AG;WRI1005738;http://data.open-power-system-data.org/;Open Power System Data;;;;;;165.677797
HKW3 UPM Schongau;;{J};Germany;48.1603;10.1144;1;2015;;Open Power System Data;65;;Gas;;;;UPM GmbH;WRI1005826;http://data.open-power-system-data.org/;CARMA;;;;;;165.677797
GuD Anlage WVK;;{J};Germany;48.0202;7.8452;1;1998;;Open Power System Data;60.1;;Gas;;;;Solvay Acetow GmbH;WRI1005711;http://data.open-power-system-data.org/;Open Power System Data;;;;;;153.18824
PKV Kraftwerk;;{J};Germany;53.4032;8.1282;1;1989;;Open Power System Data;60;;Gas;;;;Papier- u. Kartonfabrik Varel GmbH & Co. KG;WRI1006003;http://data.open-power-system-data.org/;Open Power System Data;;;;;;152.9333511
HKW W«Ùrth;;{J};Germany;49.07;8.307;1;2008;;Open Power System Data;59;;Gas;;;;Palm Power GmbH & Co. KG;WRI1005821;http://data.open-power-system-data.org/;Open Power System Data;;;;;;150.3844619
HKW Chemnitz  Nord II (Natural Gas);;{J};Germany;50.857;12.9231;1;1986;;Open Power System Data;57.2;;Gas;;;;eins energie in sachsen GmbH & Co. KG;WRI1005778;http://data.open-power-system-data.org/;Open Power System Data;;;;;;145.7964614
HKW Eltmann;;{J};Germany;49.984;10.6514;1;2008;;Open Power System Data;57;;Gas;;;;Palm Power GmbH & Co. KG;WRI1005782;http://data.open-power-system-data.org/;Open Power System Data;;;;;;145.2866835
Heizkraftwerk Pforzheim GmbH;;{J};Germany;48.8832;8.6653;1;1969;;Open Power System Data;52.5;;Gas;;;;Heizkraftwerk Pforzheim GmbH;WRI1005756;http://data.open-power-system-data.org/;Open Power System Data;;;;;;133.8166822
Hattorf;;{J};Germany;50.8126;9.978;1;;;Open Power System Data;52.3;;Gas;;;;K+S AG;WRI1005728;http://data.open-power-system-data.org/;Open Power System Data;;;;;;133.3069044
GuD Leuna;;{J};Germany;51.2998;12.0193;1;1998;;Open Power System Data;52;;Gas;;;;InfraLeuna GmbH;WRI1005715;http://data.open-power-system-data.org/;Open Power System Data;;;;;;132.5422376
Zielitz;;{J};Germany;52.2985;11.6796;1;1996;;Open Power System Data;52;;Gas;;;;K+S AG;WRI1006153;http://data.open-power-system-data.org/;Open Power System Data;;;;;;132.5422376
Natural Gas Turbine #9;;{J};Germany;50.8305;6.9594;1;1975;;Open Power System Data;51.9;;Gas;;;;Basell Polyolefine GmbH;WRI1005973;http://data.open-power-system-data.org/;Open Power System Data;;;;;;132.2873487
Emden Natural Gas;;{J};Germany;53.3422;7.2062;1;1973;;Open Power System Data;50;;Gas;;;;Statkraft Markets GmbH;WRI1005657;http://data.open-power-system-data.org/;Open Power System Data;;;;;;127.4444592
Kombi-HKW;;{J};Germany;51.2791;9.484;1;1987;;Open Power System Data;50;;Gas;;;;St«œdtische Werke Energie + W«œrme GmbH;WRI1005870;http://data.open-power-system-data.org/;Open Power System Data;;;;;;127.4444592
Industriepark Werk Gendorf;;{J};Germany;48.1768;12.7306;1;2002;;Open Power System Data;49;;Gas;;;;InfraServ GmbH & Co. Gendorf KG;WRI1005845;http://data.open-power-system-data.org/;Open Power System Data;;;;;;124.89557
GuD-Anlage;;{J};Germany;49.9882;9.1558;1;2013;;Open Power System Data;47;;Gas;;;;DS Smith Paper Deutschland GmbH;WRI1005719;http://data.open-power-system-data.org/;Open Power System Data;;;;;;119.7977917
Kombikraftwerk;;{J};Germany;51.4656;12.592;1;1993;;Open Power System Data;46.6;;Gas;;;;Stora Enso Sachsen GmbH;WRI1005871;http://data.open-power-system-data.org/;Open Power System Data;;;;;;118.778236
Natural Gaskraftwerk #1;;{J};Germany;50.7055;6.6536;1;1966;;Open Power System Data;45.3;;Gas;;;;Smurfit Kappa Z«¨lpich Papier GmbH;WRI1005969;http://data.open-power-system-data.org/;Open Power System Data;;;;;;115.4646801
HKW Schwerin S«¨d;;{J};Germany;53.5779;11.3965;1;1994;;Open Power System Data;44.9;;Gas;;;;Energieversorgung Schwerin GmbH & Co. Erzeugung KG;WRI1005814;http://data.open-power-system-data.org/;Open Power System Data;;;;;;114.4451244
HKW Hiltrop;;{J};Germany;51.508;7.2503;1;2014;;Open Power System Data;44;;Gas;;;;Stadtwerke Bochum Holding GmbH;WRI1005790;http://data.open-power-system-data.org/;Open Power System Data;;;;;;112.1511241
HKW Fenne  GrubenNatural Gaskraftwerk;;{J};Germany;49.249;6.8792;1;2003;;Open Power System Data;42;;Gas;;;;STEAG New Energies GmbH;WRI1005786;http://data.open-power-system-data.org/;Open Power System Data;;;;;;107.0533457
Kraftwerk Grenzach-Wyhlen;;{J};Germany;47.5397;7.7069;1;2004;;Open Power System Data;40;;Gas;;;;KGW - Kraftwerk Grenzach-Wyhlen GmbH;WRI1005881;http://data.open-power-system-data.org/;Open Power System Data;;;;;;101.9555674
Spitzenlastkraftwerk Wolfen;;{J};Germany;51.6431;12.2289;1;1997;;Open Power System Data;40;;Gas;;;;envia THERM GmbH;WRI1006054;http://data.open-power-system-data.org/;Open Power System Data;;;;;;101.9555674
Natural Gas- u. Dampfturbinenanlage S«¨draum;;{J};Germany;49.2137;6.9781;1;2012;;Open Power System Data;38.6;;Gas;;;;ZF Friedrichshafen AG;WRI1005967;http://data.open-power-system-data.org/;Open Power System Data;;;;;;98.38712252
Industriekraftwerk Greifswald;;{J};Germany;54.1379;13.6671;1;2014;;Open Power System Data;37.7;;Gas;;;;Industriekraftwerk Greifswald GmbH;WRI1005843;http://data.open-power-system-data.org/;Open Power System Data;;;;;;96.09312226
GuD Kraftwerk Hillegossen;;{J};Germany;52.0333;8.5333;1;2005;;Open Power System Data;37.5;;Gas;;;;Stadtwerke Bielefeld GmbH;WRI1005714;http://data.open-power-system-data.org/;Open Power System Data;;;;;;95.58334442
Heizkraftwerk West;;{J};Germany;49.0144;8.3481;1;1984;;Open Power System Data;37;;Gas;;;;Stadtwerke Karlsruhe GmbH;WRI1005761;http://data.open-power-system-data.org/;Open Power System Data;;;;;;94.30889983
HKW Brandenburg;;{J};Germany;51.5122;13.9711;1;1997;;Open Power System Data;36;;Gas;;;;Stadtwerke Brandenburg an der Havel GmbH;WRI1005767;http://data.open-power-system-data.org/;Open Power System Data;;;;;;91.76001064
HKW Pfaffenwald;;{J};Germany;48.7508;9.1103;1;;;Open Power System Data;36;;Gas;;;;Universit«œt Stuttgart;WRI1005806;http://data.open-power-system-data.org/;Open Power System Data;;;;;;91.76001064
Natural Gas Turbine #3;;{J};Germany;51.1514;13.9776;1;2014;;Open Power System Data;36;;Gas;;;;Sachsenmilch Leppersdorf GmbH;WRI1006101;http://data.open-power-system-data.org/;Open Power System Data;;;;;;91.76001064
HKW S«¨dstadt;;{J};Germany;50.917;6.9573;1;1994;;Open Power System Data;35;;Gas;;;;RheinEnergie AG;WRI1005815;http://data.open-power-system-data.org/;Open Power System Data;;;;;;89.21112146
EVC / GLOBALFOUNDRIES;;{J};Germany;51.127;13.715;1;1998;;Open Power System Data;34.3;;Gas;;;;Energieversorgungscenter Dresden-Wilschdorf GmbH & Co. KG;WRI1005671;http://data.open-power-system-data.org/;Open Power System Data;;;;;;87.42689903
Kraftwerk 2;;{J};Germany;50.5691;9.6813;1;;;Open Power System Data;34.2;;Gas;;;;Papierfabrik Adolf Jass Schwarza GmbH;WRI1005875;http://data.open-power-system-data.org/;Open Power System Data;;;;;;87.17201011
Unterbreizbach;;{J};Germany;50.8132;9.9775;1;1965;;Open Power System Data;33.6;;Gas;;;;K+S AG;WRI1006113;http://data.open-power-system-data.org/;Open Power System Data;;;;;;85.6426766
RAG Anthrazit Ibbenb«¨ren GmbH;;{J};Germany;52.2859;7.7461;1;1985;;Open Power System Data;33.4;;Gas;;;;RAG Anthrazit Ibbenb«¨ren GmbH;WRI1006014;http://data.open-power-system-data.org/;Open Power System Data;;;;;;85.13289876
HKW Humboldtstr.;;{J};Germany;54.3275;10.1267;1;;;Open Power System Data;31;;Gas;;;;Stadtwerke Kiel AG;WRI1005791;http://data.open-power-system-data.org/;Open Power System Data;;;;;;79.01556472
KWK AOS GmbH;;{J};Germany;53.6575;9.502;1;2012;;Open Power System Data;30.7;;Gas;;;;Aluminium Oxid Stade GmbH;WRI1005920;http://data.open-power-system-data.org/;Open Power System Data;;;;;;78.25089796
HKW 1 Werk Offstein;;{J};Germany;49.5991;8.221;1;1992;;Open Power System Data;30;;Gas;;;;S«¨dzucker AG Mannheim/Ochsenfurt;WRI1005771;http://data.open-power-system-data.org/;Open Power System Data;;;;;;76.46667554
UPM Augsburg;;{J};Germany;48.3801;10.9014;1;1966;;Open Power System Data;29;;Gas;;;;UPM GmbH;WRI1006115;http://data.open-power-system-data.org/;Open Power System Data;;;;;;73.91778635
Natural Gas Turbine #8;;{J};Germany;48.401;10.9358;1;2004;;Open Power System Data;28.8;;Gas;;;;Stadtwerke Augsburg Energie GmbH;WRI1005972;http://data.open-power-system-data.org/;Open Power System Data;;;;;;73.40800851
HKW Erlangen (Natural Gas);;{J};Germany;49.593;11.0016;1;;;Open Power System Data;28.5;;Gas;;;;Erlanger Stadtwerke AG;WRI1005785;http://data.open-power-system-data.org/;Open Power System Data;;;;;;72.64334176
Natural Gas Turbine #1;;{J};Germany;49.2095;7.936;1;1975;;Open Power System Data;28;;Gas;;;;Buchmann GmbH;WRI1006093;http://data.open-power-system-data.org/;Open Power System Data;;;;;;71.36889717
HKW Freiberg;;{J};Germany;48.0056;7.8423;1;2001;;Open Power System Data;27;;Gas;;;;Universit«œtsklinikum Freiburg Ad«ÙR;WRI1005768;http://data.open-power-system-data.org/;Open Power System Data;;;;;;68.82000798
X-Kraftwerk;;{J};Germany;51.0144;6.9873;1;1981;;Open Power System Data;27;;Gas;;;;Currenta GmbH & Co. OHG;WRI1006150;http://data.open-power-system-data.org/;Open Power System Data;;;;;;68.82000798
HKW Schwarza;;{J};Germany;50.6869;11.3293;1;;;Open Power System Data;26.5;;Gas;;;;Energie- und Medienversorgung Schwarza GmbH;WRI1005812;http://data.open-power-system-data.org/;Open Power System Data;;;;;;67.54556339
IHKW Heidenheim;;{J};Germany;48.6701;10.1506;1;;;Open Power System Data;26.5;;Gas;;;;Voith Dienstleistungen und Grundst«¨cks GmbH & Co. KG;WRI1005834;http://data.open-power-system-data.org/;Open Power System Data;;;;;;67.54556339
Dortmund;;{J};Germany;51.5197;7.477;1;2004;;Open Power System Data;26;;Gas;;;;RWE Generation SE;WRI1005638;http://data.open-power-system-data.org/;Open Power System Data;;;;;;66.2711188
KWK-Anlage Krefeld DT;;{J};Germany;51.3392;6.6642;1;2004;;Open Power System Data;25.8;;Gas;;;;Cargill Deutschland GmbH;WRI1005925;http://data.open-power-system-data.org/;Open Power System Data;;;;;;65.76134096
HKW-Nord;;{J};Germany;52.2786;10.5147;1;1965;;Open Power System Data;25;;Gas;;;;Braunschweiger Versorgungs-AG & Co. KG;WRI1005824;http://data.open-power-system-data.org/;Open Power System Data;;;;;;63.72222961
HKW 2;;{J};Germany;51.4707;6.8616;1;1995;;Open Power System Data;24.5;;Gas;;;;Energieversorgung Oberhausen AG;WRI1005772;http://data.open-power-system-data.org/;Open Power System Data;;;;;;62.44778502
HBB;;{J};Germany;47.796;12.1193;1;2001;;Open Power System Data;24;;Gas;;;;HBB Heizkraftwerk Bauernfeind Betreibergesellschaft mbh;WRI1005730;http://data.open-power-system-data.org/;Open Power System Data;;;;;;61.17334043
INEOS Kraftwerk;;{J};Germany;51.4693;6.6436;1;1995;;Open Power System Data;24;;Gas;;;;INEOS Solvents Germany GmbH;WRI1005846;http://data.open-power-system-data.org/;Open Power System Data;;;;;;61.17334043
Natural Gasmotore;;{J};Germany;47.8561;12.1341;1;2011;;Open Power System Data;23.3;;Gas;;;;Stadtwerke Rosenheim GmbH & Co. KG;WRI1005971;http://data.open-power-system-data.org/;Open Power System Data;;;;;;59.389118
HKW 1;;{J};Germany;51.4707;6.8616;1;1972;;Open Power System Data;23.1;;Gas;;;;Energieversorgung Oberhausen AG;WRI1005770;http://data.open-power-system-data.org/;Open Power System Data;;;;;;58.87934016
HKW Schwerin Lankow;;{J};Germany;53.6539;11.373;1;1994;;Open Power System Data;23;;Gas;;;;Energieversorgung Schwerin GmbH & Co. Erzeugung KG;WRI1005813;http://data.open-power-system-data.org/;Open Power System Data;;;;;;58.62445124
Heizkraftwerk 1;;{J};Germany;53.5177;9.9508;1;1992;;Open Power System Data;22.5;;Gas;;;;ADM Hamburg Aktiengesellschaft;WRI1005732;http://data.open-power-system-data.org/;Open Power System Data;;;;;;57.35000665
Heizkraftwerk Bomlitz;;{J};Germany;52.9;9.65;1;1912;;Open Power System Data;22.1;;Gas;;;;Dow Wolff Cellulosics GmbH;WRI1005739;http://data.open-power-system-data.org/;CARMA;;;;;;56.33045098
HKW Wiesengrund;;{J};Germany;50.9816;10.2906;1;1993;;Open Power System Data;22.1;;Gas;;;;ENAG/MainNatural Gas Energieanlagen GmbH;WRI1005820;http://data.open-power-system-data.org/;Open Power System Data;;;;;;56.33045098
Energiezentrum Mohn Media;;{J};Germany;51.9073;8.4088;1;1994;;Open Power System Data;22;;Gas;;;;Mohn Media Mohndruck GmbH;WRI1005663;http://data.open-power-system-data.org/;Open Power System Data;;;;;;56.07556206
Heizkraftwerk Stendal;;{J};Germany;52.6087;11.8325;1;1994;;Open Power System Data;22;;Gas;;;;VASA Kraftwerke-Pool GmbH & Co. KG;WRI1005759;http://data.open-power-system-data.org/;Open Power System Data;;;;;;56.07556206
Bochum;;{J};Germany;51.4833;7.2167;1;2004;;Open Power System Data;20.7;;Gas;;;;RWE Generation SE;WRI1005615;http://data.open-power-system-data.org/;Open Power System Data;;;;;;52.76200612
Werkskraftwerk Sappi Alfeld 2;;{J};Germany;51.9851;9.8225;1;1947;;Open Power System Data;20;;Gas;;;;Sappi Alfeld GmbH;WRI1006137;http://data.open-power-system-data.org/;Open Power System Data;;;;;;50.97778369
Natural Gas Turbine #2;;{J};Germany;51.6627;10.3531;1;1978;;Open Power System Data;19.5;;Gas;;;;Smurfit Kappa Herzberger Papierfabrik GmbH;WRI1006095;http://data.open-power-system-data.org/;Open Power System Data;;;;;;49.7033391
Sigmundshall;;{J};Germany;52.4185;9.3681;1;1974;;Open Power System Data;19;;Gas;;;;K+S AG;WRI1006047;http://data.open-power-system-data.org/;Open Power System Data;;;;;;48.42889451
FS-Karton;;{J};Germany;51.2171;6.6965;1;1992;;Open Power System Data;18.9;;Gas;;;;FS-Karton GmbH;WRI1005684;http://data.open-power-system-data.org/;Open Power System Data;;;;;;48.17400559
HKW G«Ùttingen;;{J};Germany;51.5534;9.9337;1;1998;;Open Power System Data;18.8;;Gas;;;;Georg-August-Universit«œt G«Ùttingen Stiftung «üÉ??ffentlichen Rechts;WRI1005788;http://data.open-power-system-data.org/;Open Power System Data;;;;;;47.91911667
Natural Gas Turbine #7;;{J};Germany;49.4059;11.1329;1;;;Open Power System Data;18.6;;Gas;;;;Prinovis Ltd. & Co. KG;WRI1005708;http://data.open-power-system-data.org/;Open Power System Data;;;;;;47.40933883
Heizkraftwerk zur Papierfabrik;;{J};Germany;52.618;7.8619;1;1995;;Open Power System Data;18.1;;Gas;;;;Delkeskamp Verpackungswerke GmbH;WRI1005762;http://data.open-power-system-data.org/;Open Power System Data;;;;;;46.13489424
Heizkraftwerk 4;;{J};Germany;48.3751;10.9028;1;1976;;Open Power System Data;18;;Gas;;;;Stadtwerke Augsburg Energie GmbH;WRI1005735;http://data.open-power-system-data.org/;Open Power System Data;;;;;;45.88000532
KWK-Anlage Barby;;{J};Germany;51.9832;11.8766;1;1993;;Open Power System Data;18;;Gas;;;;Cargill Deutschland GmbH;WRI1005924;http://data.open-power-system-data.org/;Open Power System Data;;;;;;45.88000532
GuD-Kraftwerk;;{J};Germany;49.5307;8.4709;1;2005;;Open Power System Data;17.2;;Gas;;;;Energie- und Medienversorgung Sandhofer Stra«?e GmbH & Co. KG;WRI1005724;http://data.open-power-system-data.org/;Open Power System Data;;;;;;43.84089397
BHKW H.120;;{J};Germany;51.2545;6.7865;1;2012;;Open Power System Data;16.9;;Gas;;;;Daimler AG;WRI1005588;http://data.open-power-system-data.org/;Open Power System Data;;;;;;43.07622722
Heizkraftwerk Evonik Rheinfelden;;{J};Germany;47.5708;7.8072;1;1980;;Open Power System Data;16;;Gas;;;;Evonik Degussa GmbH;WRI1005741;http://data.open-power-system-data.org/;Open Power System Data;;;;;;40.78222695
HKW Merheim;;{J};Germany;50.9431;7.0852;1;2001;;Open Power System Data;15.8;;Gas;;;;RheinEnergie AG;WRI1005798;http://data.open-power-system-data.org/;Open Power System Data;;;;;;40.27244912
HKW Merkenich;;{J};Germany;51.0179;6.964;1;1965;;Open Power System Data;15.5;;Gas;;;;RheinEnergie AG;WRI1005799;http://data.open-power-system-data.org/;Open Power System Data;;;;;;39.50778236
Kesselhaus Zuckerfabrik;;{J};Germany;53.8563;13.7101;1;1993;;Open Power System Data;15.1;;Gas;;;;Suiker Unie GmbH;WRI1005861;http://data.open-power-system-data.org/;Open Power System Data;;;;;;38.48822669
"HKW ""Helmsh«œger Berg""";;{J};Germany;54.0973;13.385;1;1996;;Open Power System Data;14.7;;Gas;;;;Energieerzeugungsgesellschaft Greifswald GmbH;WRI1005769;http://data.open-power-system-data.org/;Open Power System Data;;;;;;37.46867101
KWK-Anlage Krefeld VM;;{J};Germany;51.3392;6.6642;1;2004;;Open Power System Data;14;;Gas;;;;Cargill Deutschland GmbH;WRI1005926;http://data.open-power-system-data.org/;Open Power System Data;;;;;;35.68444858
MT  D«¨ren;;{J};Germany;50.7728;6.49;1;2011;;Open Power System Data;14;;Gas;;;;Mets«œ Tissue GmbH Werk D«¨ren;WRI1005954;http://data.open-power-system-data.org/;Open Power System Data;;;;;;35.68444858
Egger Kraftwerk Briilon 2;;{J};Germany;51.4085;8.5999;1;1996;;Open Power System Data;13.5;;Gas;;;;Egger Kraftwerk Brilon GmbH;WRI1005652;http://data.open-power-system-data.org/;Open Power System Data;;;;;;34.41000399
HKW Bohrh«¨gel;;{J};Germany;50.6315;10.6987;1;1995;;Open Power System Data;13.5;;Gas;;;;Stadtwerke Suhl/Zella-Mehlis GmbH;WRI1005776;http://data.open-power-system-data.org/;Open Power System Data;;;;;;34.41000399
KWKK Heidelberg;;{J};Germany;49.4216;8.6728;1;2002;;Open Power System Data;13.5;;Gas;;;;RWE Energiedienstleistungen GmbH;WRI1005927;http://data.open-power-system-data.org/;Open Power System Data;;;;;;34.41000399
STW;;{J};Germany;50.8741;13.3944;1;2007;;Open Power System Data;13.5;;Gas;;;;Schoeller Technocell GmbH & Co. KG;WRI1006061;http://data.open-power-system-data.org/;Open Power System Data;;;;;;34.41000399
BHKW Obere Viehweide;;{J};Germany;48.5109;9.0715;1;2000;;Open Power System Data;13.4;;Gas;;;;Stadtwerke T«¨bingen GmbH;WRI1005590;http://data.open-power-system-data.org/;Open Power System Data;;;;;;34.15511507
GHD;;{J};Germany;48.6403;12.4634;1;1998;;Open Power System Data;13.4;;Gas;;;;GHD Bayernwerk Natur GmbH & Co. KG;WRI1005695;http://data.open-power-system-data.org/;Open Power System Data;;;;;;34.15511507
BHKW;;{J};Germany;49.0475;8.2816;1;2013;;Open Power System Data;13;;Gas;;;;Daimler AG;WRI1005586;http://data.open-power-system-data.org/;Open Power System Data;;;;;;33.1355594
GUD-Anlage DREWSEN;;{J};Germany;52.6235;10.2457;1;2000;;Open Power System Data;13;;Gas;;;;DREWSEN SPEZIALPAPIERE GmbH & Co.KG;WRI1005720;http://data.open-power-system-data.org/;Open Power System Data;;;;;;33.1355594
HKW-West;;{J};Germany;52.0262;8.8666;1;2002;;Open Power System Data;12.8;;Gas;;;;Stadtwerke Lemgo GmbH;WRI1005825;http://data.open-power-system-data.org/;Open Power System Data;;;;;;32.62578156
K&N PFK AG EV;;{J};Germany;51.0513;13.0166;1;1993;;Open Power System Data;12.75;;Gas;;;;K«¨bler & Niethammer Papierfabrik Kriebstein AG;WRI1005852;http://data.open-power-system-data.org/;Open Power System Data;;;;;;32.4983371
Heizkraftwerk Krefeld;;{J};Germany;51.3388;6.5853;1;;;Open Power System Data;12.6;;Gas;;;;SWK ENERGIE GmbH;WRI1005750;http://data.open-power-system-data.org/;Open Power System Data;;;;;;32.11600372
Kraftwerk Meggle;;{J};Germany;48.0564;12.1852;1;2000;;Open Power System Data;12.6;;Gas;;;;Molkerei MEGGLE Wasserburg GmbH & Co. KG;WRI1005887;http://data.open-power-system-data.org/;Open Power System Data;;;;;;32.11600372
BHKW Ludwigshafen;;{J};Germany;49.4531;8.4336;1;2008;;Open Power System Data;12.5;;Gas;;;;MVV Energie AG;WRI1005589;http://data.open-power-system-data.org/;Open Power System Data;;;;;;31.86111481
Industriekraftwerk Ludwigshafen;;{J};Germany;49.4532;8.4336;1;2003;;Open Power System Data;12;;Gas;;;;MVV Energie AG;WRI1005844;http://data.open-power-system-data.org/;Open Power System Data;;;;;;30.58667021
HKW Karcherstr. (Natural Gas);;{J};Germany;49.4347;7.7602;1;1989;;Open Power System Data;11.6;;Gas;;;;SWK - Stadtwerke Kaiserslautern;WRI1005796;http://data.open-power-system-data.org/;Open Power System Data;;;;;;29.56711454
Co-Generation;;{J};Germany;49.6633;8.3589;1;1991;;Open Power System Data;11.5;;Gas;;;;Grace GmbH & Co. KG;WRI1005625;http://data.open-power-system-data.org/;Open Power System Data;;;;;;29.31222562
Industriekraftwerk Breuberg;;{J};Germany;49.8108;9.0117;1;1999;;Open Power System Data;11.4;;Gas;;;;Industriekraftwerk Breuberg GmbH / Pirelli Deutschland GmbH;WRI1005842;http://data.open-power-system-data.org/;Open Power System Data;;;;;;29.0573367
P&L Werk Appeldorn;;{J};Germany;51.7297;6.3586;1;2004;;Open Power System Data;11.4;;Gas;;;;Pfeifer & Langen Kommanditgesellschaft;WRI1005992;http://data.open-power-system-data.org/;Open Power System Data;;;;;;29.0573367
Steinitz;;{J};Germany;52.83;11.1033;1;1995;;Open Power System Data;11.4;;Gas;;;;GDF SUEZ E&P DEUTSCHLAND GMBH;WRI1006058;http://data.open-power-system-data.org/;Open Power System Data;;;;;;29.0573367
Energiezentrale;;{J};Germany;51.5744;7.2979;1;1991;;Open Power System Data;11.1;;Gas;;;;R«üè?TGERS InfraTec GmbH;WRI1005661;http://data.open-power-system-data.org/;Open Power System Data;;;;;;28.29266995
Energiezentrale 1992;;{J};Germany;48.3591;11.7903;1;1992;;Open Power System Data;11.06;;Gas;;;;Flughafen M«¨nchen GmbH;WRI1005662;http://data.open-power-system-data.org/;Open Power System Data;;;;;;28.19071438
Biomass Generator #20;;{J};Germany;49.8587;7.8857;1;2006;;Open Power System Data;10.7;;Gas;;;;Michelin Reifenwerke AG & Co. KGaA Standort Bad Kreuznach;WRI1006098;http://data.open-power-system-data.org/;Open Power System Data;;;;;;27.27311427
PWG;;{J};Germany;47.7895;11.0554;1;;;Open Power System Data;10.6;;Gas;;;;Pei«?enberger W«œrmegesellschaft mbH;WRI1006010;http://data.open-power-system-data.org/;Open Power System Data;;;;;;27.01822536
BHKW an Klinkerweg;;{J};Germany;51.2169;6.9473;1;2000;;Open Power System Data;10.2;;Gas;;;;Stadtwerke Erkrath GmbH;WRI1005587;http://data.open-power-system-data.org/;Open Power System Data;;;;;;25.99866968
P&L Werk Lage;;{J};Germany;51.9861;8.8073;1;1980;;Open Power System Data;10.2;;Gas;;;;Pfeifer & Langen Kommanditgesellschaft;WRI1005996;http://data.open-power-system-data.org/;Open Power System Data;;;;;;25.99866968
Heizkraftwerk 5;;{J};Germany;49.8828;8.6287;1;1999;;Open Power System Data;10;;Gas;;;;Merck KGaA;WRI1005736;http://data.open-power-system-data.org/;Open Power System Data;;;;;;25.48889185
BHKW-Hauffstra«?e;;{J};Germany;48.4939;9.1856;1;2011;;Open Power System Data;9.8;;Gas;;;;FairEnergie GmbH;WRI1005591;http://data.open-power-system-data.org/;Open Power System Data;;;;;;24.97911401
HKW Bad Salzungen;;{J};Germany;50.8003;10.2206;1;1994;;Open Power System Data;9.7;;Gas;;;;Th«¨ringer Energie AG;WRI1005774;http://data.open-power-system-data.org/;Open Power System Data;;;;;;24.72422509
Erweiterung Energiezentrale 2003;;{J};Germany;48.3591;11.7903;1;2003;;Open Power System Data;7.44;;Gas;;;;Flughafen M«¨nchen GmbH;WRI1005668;http://data.open-power-system-data.org/;Open Power System Data;;;;;;18.96373553
Kessel 2;;{J};Germany;50.777;6.486;1;1967;;Open Power System Data;2.9;;Gas;;;;Papierfabrik Schoellershammer Heinrich August Schoeller S«Ùhne GmbH & Co. KG;WRI1005859;http://data.open-power-system-data.org/;Open Power System Data;;;;;;7.391778635
Megalopolis V;;{J};Greece;37.418;22.1083;1;;;Public Power Corporation of Greece;811;;Gas;;;;Public Power Company of Greece;WRI1061098;http://www.dei.gr/Default.aspx?id=146&nt=123&lang=4;WRI;;;;;;1055.780211
Lavrio;;{J};Greece;37.7463;24.0666;1;;;Public Power Corporation of Greece;723;;Gas;;;;Public Power Company of Greece;WRI1061099;http://www.dei.gr/Default.aspx?id=146&nt=123&lang=7;WRI;;;;;;941.2195965
Kotomini;;{J};Greece;41.0646;25.4899;1;2002;;Public Power Corporation of Greece;485;;Gas;;;;Public Power Company of Greece;WRI1061100;http://www.dei.gr/Default.aspx?id=146&nt=123&lang=2;WRI;;;;;;631.3852065
Protergia Power Plant;;{J};Greece;38.3585;22.6883;1;2011;;Hellenic Association of Independent Power Producers;444;;Gas;;;;Protergia;WRI1061101;http://haipp.gr/en/power-plants;GEODB;;;;;;578.0103746
Korinthos Power Plant;;{J};Greece;37.9208;23.0665;1;2012;;Hellenic Association of Independent Power Producers;437;;Gas;;;;Korinthos Power;WRI1061102;http://haipp.gr/en/power-plants;WRI;;;;;;568.8975985
Heron II;;{J};Greece;38.2792;23.3299;1;2010;;Hellenic Association of Independent Power Producers;432;;Gas;;;;TERNA;WRI1061103;http://haipp.gr/en/power-plants;GEODB;;;;;;562.3884726
Thisvi Power Station;;{J};Greece;38.2365;22.95;1;2010;;Hellenic Association of Independent Power Producers;421;;Gas;;;;Elpedison Energy;WRI1061104;http://haipp.gr/en/power-plants;WRI;;;;;;548.0683958
Aliveri;;{J};Greece;38.3896;24.0524;1;;;Public Power Corporation of Greece;420;;Gas;;;;Public Power Company of Greece;WRI1061105;https://www.dei.gr/Default.aspx?t=MapStation.aspx&id=179&nt=124&lang=2;GEODB;;;;;;546.7665706
Thessaloniki Power Plant;;{J};Greece;40.6872;22.885;1;2005;;Hellenic Association of Independent Power Producers;390;;Gas;;;;Elpedison Energy;WRI1061106;http://haipp.gr/en/power-plants;GEODB;;;;;;507.7118156
Agios Georgiou;;{J};Greece;37.9539;23.6104;1;;;Public Power Corporation of Greece;360;;Gas;;;;Public Power Company of Greece;WRI1061107;https://www.dei.gr/Default.aspx?t=MapStation.aspx&id=150&nt=124&lang=2;GEODB;;;;;;468.6570605
Heron I;;{J};Greece;38.2801;23.3264;1;;;Public Power Corporation of Greece;148;;Gas;;;;Public Power Company of Greece;WRI1061108;http://www.dei.gr/Default.aspx?id=146&nt=123&lang=8;GEODB;;;;;;192.6701249
Chania;;{J};Greece;35.488;24.0384;1;1998;;Public Power Corporation of Greece;134;;Gas;;;;Public Power Company of Greece;WRI1061109;http://www.dei.gr/Default.aspx?id=146&nt=123&lang=6;GEODB;;;;;;174.4445725
Tiszai Erè?mèÒ;;{J};Hungary;47.9178;21.0784;1;;;ENTSOE;864;;Gas;;;;;WRI1020247;https://transparency.entsoe.eu/generation/r2/installedCapacityPerProductionUnit/show;WRI;;;;;;1235.204548
Dunamenti Erè?mèÒ;;{J};Hungary;47.3283;18.9169;1;;;ENTSOE;840.7;;Gas;;;;;WRI1020249;https://transparency.entsoe.eu/generation/r2/installedCapacityPerProductionUnit/show;GEODB;;;;2342.443;;1201.894055
G«ÙnyèÒi Erè?mèÒ;;{J};Hungary;47.7384;17.8033;1;;;ENTSOE;426.6;;Gas;;;;;WRI1020250;https://transparency.entsoe.eu/generation/r2/installedCapacityPerProductionUnit/show;GEODB;;;;3850.476;;609.8822455
Alpiq Csepel Erè?mèÒ;;{J};Hungary;47.428;19.0525;1;;;ENTSOE;401;;Gas;;;;;WRI1020251;https://transparency.entsoe.eu/generation/r2/installedCapacityPerProductionUnit/show;GEODB;;;;1912.482;;573.2835922
Kelenf«Ùldi Erè?mèÒ;;{J};Hungary;47.4624;19.0563;1;;;ENTSOE;173;;Gas;;;;;WRI1020253;https://transparency.entsoe.eu/generation/r2/installedCapacityPerProductionUnit/show;GEODB;;;;820.506;;247.3268365
Kispesti Erè?mèÒ;;{J};Hungary;47.4568;19.1673;1;;;ENTSOE;109.2;;Gas;;;;;WRI1020259;https://transparency.entsoe.eu/generation/r2/installedCapacityPerProductionUnit/show;GEODB;;;;1378.533;;156.1161303
Debreceni Kombin«≠ltciklus«ß Erè?mèÒ;;{J};Hungary;47.5185;21.6329;1;;;ENTSOE;95;;Gas;;;;;WRI1020262;https://transparency.entsoe.eu/generation/r2/installedCapacityPerProductionUnit/show;GEODB;;;;;;135.8153149
GREENERGY szab«≠lyoz«≠si k«Ùzpont;;{J};Hungary;46.0641;18.2646;1;;;ENTSOE;45.8;;Gas;;;;;WRI1020270;https://transparency.entsoe.eu/generation/r2/installedCapacityPerProductionUnit/show;WRI;;;;;;65.47727811
Aghada;;{J};Ireland;51.8347;-8.2362;1;;;All Island Project;528;;Gas;;;;ESBPG;WRI1002813;http://www.allislandproject.org/en/market_decision_documents.aspx?article=151a9561-cef9-47f2-9f48-21f6c62cef47;GEODB;;;;;;1846.605823
Poolbeg Combined Cycle;;{J};Ireland;53.3396;-6.1867;1;;;All Island Project;480;;Gas;;;;ESBPG;WRI1002836;http://www.allislandproject.org/en/market_decision_documents.aspx?article=151a9561-cef9-47f2-9f48-21f6c62cef72;GEODB;;;;;;1678.732566
Whitegate;;{J};Ireland;51.8161;-8.2511;1;;;All Island Project;445;;Gas;;;;Bord Gais;WRI1002844;http://www.allislandproject.org/en/market_decision_documents.aspx?article=151a9561-cef9-47f2-9f48-21f6c62cef97;GEODB;;;;;;1556.324983
Aghada CCGT;;{J};Ireland;51.8347;-8.2362;1;;;All Island Project;435;;Gas;;;;ESBPG;WRI1002814;http://www.allislandproject.org/en/market_decision_documents.aspx?article=151a9561-cef9-47f2-9f48-21f6c62cef96;GEODB;;;;;;1521.351388
Dublin Bay Power;;{J};Ireland;53.34;-6.2049;1;;;All Island Project;415;;Gas;;;;Synergen;WRI1002821;http://www.allislandproject.org/en/market_decision_documents.aspx?article=151a9561-cef9-47f2-9f48-21f6c62cef92;GEODB;;;;;;1451.404198
Huntstown Phase II;;{J};Ireland;53.4119;-6.3261;1;;;All Island Project;404;;Gas;;;;Viridian;WRI1002826;http://www.allislandproject.org/en/market_decision_documents.aspx?article=151a9561-cef9-47f2-9f48-21f6c62cef94;GEODB;;;;;;1412.933243
Tynagh;;{J};Ireland;53.1658;-8.381;1;;;All Island Project;388.5;;Gas;;;;Tynagh;WRI1002842;http://www.allislandproject.org/en/market_decision_documents.aspx?article=151a9561-cef9-47f2-9f48-21f6c62cef93;GEODB;;;;;;1358.724171
Huntstown;;{J};Ireland;53.4119;-6.3261;1;;;All Island Project;343;;Gas;;;;Viridian;WRI1002825;http://www.allislandproject.org/en/market_decision_documents.aspx?article=151a9561-cef9-47f2-9f48-21f6c62cef95;GEODB;;;;;;1199.594313
Sealrock (Aughinish CHP);;{J};Ireland;52.6324;-9.0596;1;;;All Island Project;166;;Gas;;;;Aughinish;WRI1002838;http://www.allislandproject.org/en/market_decision_documents.aspx?article=151a9561-cef9-47f2-9f48-21f6c62cef38;GEODB;;;;;;580.5616791
Marina No ST;;{J};Ireland;51.9;-8.4458;1;;;All Island Project;88;;Gas;;;;ESBPG;WRI1002832;http://www.allislandproject.org/en/market_decision_documents.aspx?article=151a9561-cef9-47f2-9f48-21f6c62cef69;GEODB;;;;;;307.7676371
MONTALTO (Alessandro Volta);;{J};Italy;42.3572;11.5373;1;;;ENEL;3446;;Gas;;;;ENEL;WRI1002912;https://www.futur-e.enel.it/cs/Satellite?blobcol=urldata&blobheader=application%2Fpdf&blobheadername1=Content-Disposition&blobheadername2=MDT-Type&blobheadervalue1=inline%3B+filename%3Dmontalto-ita_2.pdf&blobheadervalue2=abinary%3B+charset%3DUTF-8&blobkey=id&blobtable=MungoBlobs&blobwhere=1445865128793&ssbinary=true;GEODB;;;;3.079;;8365.767805
TAVAZZANO;;{J};Italy;45.3325;9.4364;1;2005;;E.ON;1520;;Gas;;;;E. On;WRI1002962;https://web.archive.org/web/20150128221727/http://www.eon-italia.com/en/business/generation/power-plants/tavazzano-and-montanaso.html;GEODB;;;;2365.5;;3690.065892
TORREVALDALIGA South;;{J};Italy;42.1241;11.7624;1;;;Tirreno Power;1488;;Gas;;;;Tirreno;WRI1002970;http://www.tirrenopower.com/en/impianti-elettrici/torrevaldaliga-sud/;GEODB;;;;798.34;;3612.380294
LA CASELLA C.LE;;{J};Italy;45.0904;9.4805;1;;;Dichiarazione Ambientale Anno 2007;1465.85;;Gas;;;;Enel;WRI1002897;https://www.enel.it/it-it/documents/azienda/ambiente/dichiarazioni_ambientali/lacasella_da2007_2008.pdf;GEODB;;;;520.48;;3558.607295
OSTIGLIA;;{J};Italy;45.0603;11.1374;1;2013;;E.ON;1457;;Gas;;;;E On;WRI1002917;https://web.archive.org/web/20140409021055/http://www.eon-italia.com/en/business/generation/power-plants/ostiglia.html;GEODB;;;;2295.6;;3537.122372
VADO Ligure;;{J};Italy;44.2755;8.4305;1;2007;;Tirreno Power;1353;;Gas;;;;Tirreno Power;WRI1002976;http://www.tirrenopower.com/en/impianti-elettrici/vado-ligure/;GEODB;;;;1239.5;;3284.644179
ENIPOWER BRINDISI;;{J};Italy;40.6293;18.0033;1;;;Enipower;1260;;Gas;;;;Enipower;WRI1002879;http://www.enipower.eni.it/it/pages/dove-operiamo/brindisi/brindisi.shtml;GEODB;;;;4445;;3058.870411
TERMINI IMERESE C.LE;;{J};Italy;37.9684;13.7512;1;;;Viver Energia;1235;;Gas;;;;;WRI1002964;http://www.viverenergia.altervista.org/joomla/impianti-in-italia/29-centrale-termoelettrica-di-termini-imerese;WRI;;;;3410.7;;2998.178537
SERMIDE;;{J};Italy;45.0265;11.2522;1;2004;;Edipower;1151;;Gas;;;;Edipower;WRI1002951;http://www.edipower.it/edp/cms/edipower/attivita/impianti/centrale-termoelettrica-di-sermide/;GEODB;;;;938.94;;2794.253843
CHIVASSO;;{J};Italy;45.1856;7.9016;1;;;TERNA;1123;;Gas;;;;;WRI1002871;http://www.terna.it/en-gb/sistemaelettrico/transparencyreport/generation/installedgenerationcapacity.aspx;GEODB;;;;365.13;;2726.278945
ENIPOWER RAVENNA;;{J};Italy;45.512;9.509;1;2000;;Enipower;972;;Gas;;;;Enipower;WRI1002880;http://www.enipower.eni.it/it/pages/dove-operiamo/ravenna/ravenna.shtml;GEODB;;;;3473.9;;2359.700031
Cassano dÉ??Adda;;{J};Italy;45.5115;9.5098;1;;;A2A;969;;Gas;;;;A2A;WRI1002861;http://www.a2a.eu/en/plants_networks/thermoelectric/cassano/;WRI;;;;582.57;;2352.417006
GISSI;;{J};Italy;42.0502;14.5639;1;2004;;A2A;840;;Gas;;;;A2A;WRI1002890;http://www.a2a.eu/en/plants_networks/thermoelectric/gissi/;GEODB;;;;642.3;;2039.24694
CENTRALE DI SCANDALE;;{J};Italy;39.1022;17.0325;1;;;Ergosud;826;;Gas;;;;Ergosud;WRI1002865;http://www.ergosud.it/tecnologia;GEODB;;;;619;;2005.259491
ALTOMONTE;;{J};Italy;39.7118;16.215;1;2006;;Edison;808;;Gas;;;;Edison;WRI1002845;http://www.edison.it/en/altomonte-cs-thermoelectric-power-plant;GEODB;;;;2710.1;;1961.561343
PIACENZA;;{J};Italy;45.0543;9.7086;1;2006;;Edipower;806;;Gas;;;;Edipower;WRI1002918;https://web.archive.org/web/20110909235820/http://www.edipower.org/centrali/piacenza.asp;GEODB;;;;1068.7;;1956.705993
E.ON C.TE LIVORNO FERRARIS;;{J};Italy;45.2372;8.1932;1;;;Power Magazine;804;;Gas;;;;;WRI1002876;http://www.powermag.com/top-plantslivorno-ferraris-power-plant-vercelli-province-italy/;GEODB;;;;2390.8;;1951.850643
CENTRALE DI TURANO LODIGIANO - BERTONICO (LO);;{J};Italy;45.2268;9.6377;1;2011;;Ansaldo Energia;800;;Gas;;;;Ansalado Energia;WRI1002867;http://www.ansaldoenergia.it/easyUp/file/anno2012_numero2(1).pdf;GEODB;;;;1337.5;;1942.139943
SORGENIA PUGLIA CENTRALE DI MODUGNO;;{J};Italy;41.1025;16.756;1;2010;;Sorgenia;800;;Gas;;;;Sorgenia;WRI1002956;https://www.sorgenia.it/produzione/impianti-ciclo-combinato/centrale-modugno.html;GEODB;;;;947.41;;1942.139943
CCGT APRILIA;;{J};Italy;41.5616;12.6337;1;;;TERNA;787;;Gas;;;;;WRI1002862;http://www.terna.it/en-gb/sistemaelettrico/transparencyreport/generation/installedgenerationcapacity.aspx;GEODB;;;;790.96;;1910.580169
TORVISCOSA;;{J};Italy;45.817;13.2891;1;2006;;Edison;785;;Gas;;;;Edison;WRI1002971;http://www.centraletorviscosa.it/go.asp?Id=4;GEODB;;;;2027;;1905.724819
MONCALIERI;;{J};Italy;44.993;7.6755;1;;;Iren Energia;780;;Gas;;;;;WRI1002910;http://www.irenenergia.it/ChiSiamo/Attivita/Teleriscaldamento/Dove_Siamo/Impianti_Torino.html;GEODB;;;;2286.3;;1893.586445
ENERGIA MOLISE;;{J};Italy;41.9369;15.0004;1;2006;;Technip Magazine;769;;Gas;;;;;WRI1002878;http://www.technip.com/en/press/contract-award-800-mw-power-plant-italy;WRI;;;;827.53;;1866.88202
RIZZICONI;;{J};Italy;38.4453;15.99;1;;;Axpo;760;;Gas;;;;EGL Italia;WRI1002935;http://www.axpo.com/axpo/it/en/knowledge/power-production/assets-in-italy.html;GEODB;;;;3635.8;;1845.032946
SIMERI CRICHI;;{J};Italy;38.8759;16.6569;1;;;Edison;760;;Gas;;;;Edison;WRI1002953;http://www.skemaq.it/uploads/case-studies/7cae243ca90d11d3755216b3b90bacdc.pdf;GEODB;;;;2625;;1845.032946
SPARANISE;;{J};Italy;41.1783;14.1129;1;;;Axpo;760;;Gas;;;;EGL Italia;WRI1002958;http://www.axpo.com/axpo/it/en/knowledge/power-production/assets-in-italy.html;GEODB;;;;2845;;1845.032946
LEVANTE;;{J};Italy;45.4458;12.2552;1;1992;;TERNA;752.5;;Gas;;;;;WRI1002905;http://www.terna.it/en-gb/sistemaelettrico/transparencyreport/generation/installedgenerationcapacity.aspx;GEODB;;;;2165;;1826.825384
PORTO CORSINI;;{J};Italy;44.4836;12.2652;1;2002;;ENEL;750;;Gas;;;;ENEL;WRI1002924;https://www.enel.it/it-it/documents/azienda/ambiente/dichiarazioni_ambientali/portocorsini_da2008_2008.pdf;GEODB;;;;98.97;;1820.756197
PRIOLO C.LE;;{J};Italy;37.14;15.2159;1;;;ENEL;750;;Gas;;;;ENEL;WRI1002930;https://www.enel.it/it-it/documents/azienda/ambiente/dichiarazioni_ambientali/priologargallo_da2009_2010.pdf;GEODB;;;;3150;;1820.756197
SARLUX;;{J};Italy;39.1037;9.0063;1;2000;;Power and Technology Magazine;630;;Gas;;;;Saras SpA;WRI1002948;http://www.power-technology.com/projects/sarlux/;GEODB;;;;4429;;1529.435205
ISAB ENERGY;;{J};Italy;37.1399;15.2158;1;1998;;Siemens;521;;Gas;;;;;WRI1002894;http://www.energy.siemens.com/br/en/fossil-power-generation/power-plants/integrated-gasification-combined-cycle/integrated-gasification-combined-cycle.htm#content=References;GEODB;;;;2602;;1264.818638
CTE NUCE NORD;;{J};Italy;37.1313;15.2014;1;;;TERNA;480;;Gas;;;;ERG;WRI1002874;http://www.borsaitaliana.it/bitApp/view.bit?lang=it&target=DocViewerDownload&filename=db%2Fpdf%2Fnew%2F8318.pdf;WRI;;;;2085;;1165.283966
CANDELA;;{J};Italy;41.2014;15.4762;1;;;Edison;400;;Gas;;;;Edison;WRI1002858;http://www.skemaq.it/uploads/case-studies/7cae243ca90d11d3755216b3b90bacdc.pdf;GEODB;;;;2397.6;;971.0699716
CENTRALE DI TEVEROLA;;{J};Italy;41.0092;14.2281;1;2007;;Repower;400;;Gas;;;;;WRI1002866;https://web.archive.org/web/20110703082905/http://www.repower.com/en/it/production/power-plants/combined-cycle-gas-power-plant-in-teverola/;GEODB;;;;2500;;971.0699716
CTE DEL MINCIO;;{J};Italy;45.3993;10.7142;1;;;A2A;400;;Gas;;;;A2A;WRI1002873;http://www.a2a.eu/gruppo/cms/a2a/it/impianti_reti/termoelettrica/mincio.html;GEODB;;;;392.73;;971.0699716
NAPOLI L;;{J};Italy;40.8339;14.3006;1;2009;;Tirreno Power;400;;Gas;;;;Tirreno;WRI1002916;http://www.tirrenopower.com/en/impianti-elettrici/napoli-levante/;GEODB;;;;715;;971.0699716
Santa Barbara;;{J};Italy;43.565;11.4777;1;2006;;Dichiarazione Ambientale;390;;Gas;;;;;WRI1002940;https://www.enel.it/it-it/documents/azienda/ambiente/dichiarazioni_ambientali/ds_santa_barbara_2011.pdf;GEODB;;;;148;;946.7932223
VOGHERA;;{J};Italy;45.0296;8.9723;1;;;Tractabel;380.5;;Gas;;;;;WRI1002983;http://www.tractebel-engie.com/references/combined-cycle-power-plant-voghera-pavia-2/;GEODB;;;;1649;;923.7303105
LEINI;;{J};Italy;45.163;7.7505;1;2007;;Ansaldo Energia;379.5;;Gas;;;;;WRI1002904;http://ansaldoenergia.it/easyUp/file/pgs.pdf;GEODB;;;;1737;;921.3026356
PIETRAFITTA;;{J};Italy;42.9954;12.1995;1;;;ENEL;365;;Gas;;;;ENEL;WRI1002919;https://www.futur-e.enel.it/cs/Satellite?blobcol=urldata&blobheader=application%2Fpdf&blobheadername1=Content-Disposition&blobheadername2=MDT-Type&blobheadervalue1=inline%3B+filename%3Dpietrafitta-ita.pdf&blobheadervalue2=abinary%3B+charset%3DUTF-8&blobkey=id&blobtable=MungoBlobs&blobwhere=1445864753429&ssbinary=true;GEODB;;;;14;;886.1013491
Maddaloni;;{J};Italy;41.0197;14.37;1;1977;;ENEL;352;;Gas;;;;;WRI1002907;https://www.futur-e.enel.it/cs/Satellite?blobcol=urldata&blobheader=application%2Fpdf&blobheadername1=Content-Disposition&blobheadername2=MDT-Type&blobheadervalue1=inline%3B+filename%3Dmaddaloni-eng.pdf&blobheadervalue2=abinary%3B+charset%3DUTF-8&blobkey=id&blobtable=MungoBlobs&blobwhere=1445864757537&ssbinary=true;WRI;;;;;;854.541575
API ENERGIA IGCC;;{J};Italy;37.2814;13.521;1;2001;;IGCC;280;;Gas;;;;Edipower;WRI1002847;http://www.ogj.com/articles/print/volume-94/issue-50/in-this-issue/general-interest/italian-igcc-project-sets-pace-for-new-refining-era.html;WRI;;;;11;;679.7489801
LARINO TG;;{J};Italy;41.8055;14.9193;1;1992;;ENEL;250;;Gas;;;;ENEL;WRI1002903;https://www.futur-e.enel.it/cs/Satellite?blobcol=urldata&blobheader=application%2Fpdf&blobheadername1=Content-Disposition&blobheadername2=MDT-Type&blobheadervalue1=inline%3B+filename%3Dlarino-eng.pdf&blobheadervalue2=abinary%3B+charset%3DUTF-8&blobkey=id&blobtable=MungoBlobs&blobwhere=1445864757512&ssbinary=true;CARMA;;;;1;;606.9187322
AZOTATI;;{J};Italy;45.4511;12.2239;1;1993;;Edison IT;240;;Gas;;;;Edison;WRI1002851;https://www.edison.it/en/marghera-azotati-thermoelectric-power-plant;CARMA;;;;112;;582.641983
TOR DI VALLE;;{J};Italy;41.8117;12.4228;1;;;TERNA;223;;Gas;;;;GDF Suez;WRI1002966;http://www.terna.it/en-gb/sistemaelettrico/transparencyreport/generation/installedgenerationcapacity.aspx;CARMA;;;;0;;541.3715092
TRAPANI C.LE;;{J};Italy;38.0158;12.5108;1;;;E.ON;213.4;;Gas;;;;E On;WRI1002972;https://web.archive.org/web/20140409020226/http://www.eon-italia.com/en/business/generation/power-plants/trapani.html;CARMA;;;;100;;518.0658298
CELANO;;{J};Italy;42.0458;13.5475;1;1998;;Termica Celano;180;;Gas;;;;Grupo Industriale Maccaferri;WRI1002864;http://www.termicacelano.it/index.php/attivita;CARMA;;;;26;;436.9814872
SARMATO;;{J};Italy;45.0522;9.5072;1;1998;;Power Plants at Risk of Shutting Down;180;;Gas;;;;EON;WRI1002949;http://www.italy24.ilsole24ore.com/pdf2010/Editrice/ILSOLE24ORE/QUOTIDIANO_INSIDE_ITALY/Online/_Oggetti_Correlati/Documenti/2014/10/23/20141023_Power.pdf;GEODB;;;;0;;436.9814872
MILAZZO;;{J};Italy;38.2212;15.2383;1;;;Edison;162.9;;Gas;;;;;WRI1002909;http://www.termica-milazzo.it/navigate.asp?voce=4&sottovoce=1;CARMA;;;;967;;395.4682459
JESI;;{J};Italy;43.5537;13.285;1;2001;;Edison;140;;Gas;;;;Edison;WRI1002896;http://www.edison.it/media/EMAS-GETE1-jesi2005.pdf;GEODB;;;;0;;339.8744901
VERZUOLO;;{J};Italy;44.5947;7.4858;1;;;TERNA;140;;Gas;;;;;WRI1002982;http://www.terna.it/en-gb/sistemaelettrico/transparencyreport/generation/installedgenerationcapacity.aspx;GEODB;;;;21;;339.8744901
SAN QUIRICO;;{J};Italy;44.9167;10.25;1;;;Edison;137;;Gas;;;;Edison;WRI1002946;http://www.edison.it/en/node/1505;CARMA;;;;1;;332.5914653
BUSSI;;{J};Italy;42.2002;13.8398;1;1994;;Edison;125;;Gas;;;;Edison;WRI1002857;http://www.edison.it/en/bussi-thermoelectric-power-plant;GEODB;;;;72;;303.4593661
PORTO VIRO;;{J};Italy;45.0178;12.2408;1;;;Power Plants at Risk of Shutting Down;125;;Gas;;;;Edison;WRI1002928;http://www.italy24.ilsole24ore.com/pdf2010/Editrice/ILSOLE24ORE/QUOTIDIANO_INSIDE_ITALY/Online/_Oggetti_Correlati/Documenti/2014/10/23/20141023_Power.pdf;CARMA;;;;0;;303.4593661
CTE TAMARETE;;{J};Italy;42.3496;14.4039;1;2013;;Power and Technology Magazine;104;;Gas;;;;Tamarete Energia;WRI1002875;http://www.power-technology.com/news/newstamarete-energia-opens-104mw-combined-cycle-power-plant-in-italy;CARMA;;;;11;;252.4781926
PORCARI;;{J};Italy;43.8235;10.6023;1;1996;;Edison;100;;Gas;;;;Edison;WRI1002923;http://www.edison.it/sites/default/files/Fact%20sheet%20ita%202015_0.pdf;GEODB;;;;;;242.7674929
TERNI;;{J};Italy;42.554;12.6176;1;;;ENTSOE;95;;Gas;;;;;WRI1021298;https://transparency.entsoe.eu/generation/r2/installedCapacityPerProductionUnit/show;GEODB;;;;;;230.6291183
Riga Tec 2;;{J};Latvia;56.918;24.2766;1;;;ENTSOE;863;;Gas;;;;;WRI1022437;https://transparency.entsoe.eu/generation/r2/installedCapacityPerProductionUnit/show;GEODB;;;;;;2014.816184
RTEC1;;{J};Latvia;56.9904;24.1788;1;;;ENTSOE;138;;Gas;;;;;WRI1022440;https://transparency.entsoe.eu/generation/r2/installedCapacityPerProductionUnit/show;GEODB;;;;;;322.1838162
Elektrenai (Lithuania) Thermal Power Plant Lithuania;;{J};Lithuania;54.7701;24.6474;1;;;GEODB;1800;;Gas;;;;;GEODB0042163;http://globalenergyobservatory.org;GEODB;2017;;;;;1264.337349
Vilnius TE-3 CHP Power Plant Lithuania;;{J};Lithuania;54.6676;25.156;1;;;GEODB;360;;Gas;;;;;GEODB0042166;http://globalenergyobservatory.org;GEODB;2017;;;;;252.8674699
Kaunas CHP Power Plant Lithuania;;{J};Lithuania;54.9212;24.018;1;;;GEODB;170;;Gas;;;;;GEODB0042165;http://globalenergyobservatory.org;GEODB;2017;;;;;119.4096386
Mazheikiai CHP Power Plant Lithuania;;{J};Lithuania;56.3843;22.1841;1;;;GEODB;160;;Gas;;;;;GEODB0042167;http://globalenergyobservatory.org;GEODB;2017;;;;;112.3855422
Esch-sur-Alzette CCGT Power Plant Luxembourg;;{J};Luxembourg;49.5119;5.9646;1;;;GEODB;385;;Gas;;;;;GEODB0045217;http://globalenergyobservatory.org;GEODB;2017;;;;;1452
Eems;;{J};Netherlands;53.4441;6.856;1;1996;;GDF Suez;2465;;Gas;;;;Electrabel;WRI1019288;https://www.google.com/url?sa=t&rct=j&q=&esrc=s&source=web&cd=3&ved=0ahUKEwilnu-T0aXOAhUBjz4KHT5VCjYQFggsMAI&url=http%3A%2F%2Fwww.engie.com%2Fwp-content%2Fuploads%2F2012%2F08%2FGDF_SUEZ_power_asset_table_vdef.xls&usg=AFQjCNHSG0cjbY0ZCS761mkpSWj0Z6E2zA&sig2=v45V3Rq0dF8CVwsH9bx9OQ&cad=rja;GEODB;;;;1553.66;;13638.50193
Magnum;;{J};Netherlands;53.4502;6.8548;1;2013;;Vattenfall;1311;;Gas;;;;Vattenfall;WRI1019311;http://powerplants.vattenfall.com/magnum;WRI;;;;;;7253.580541
FLEVO;;{J};Netherlands;52.5772;5.53;1;2010;;GDF Suez;999;;Gas;;;;GDF Suez;WRI1019305;https://www.google.com/url?sa=t&rct=j&q=&esrc=s&source=web&cd=3&ved=0ahUKEwilnu-T0aXOAhUBjz4KHT5VCjYQFggsMAI&url=http%3A%2F%2Fwww.engie.com%2Fwp-content%2Fuploads%2F2012%2F08%2FGDF_SUEZ_power_asset_table_vdef.xls&usg=AFQjCNHSG0cjbY0ZCS761mkpSWj0Z6E2zA&sig2=v45V3Rq0dF8CVwsH9bx9OQ&cad=rja;GEODB;;;;;;5527.327964
Maxima;;{J};Netherlands;52.5772;5.53;1;2010;;Engie;880;;Gas;;;;Electrabel;WRI1019290;http://www.engie.com/en/journalists/press-releases/electrabel-gdf-suez-group-inaugurates-its-maxima-plant-in-the-netherlands/;GEODB;;;;;;4868.917526
Sloe;;{J};Netherlands;51.4482;3.6928;1;2010;;SloeCentrale;870;;Gas;;;;EDF/DELTA;WRI1019287;http://www.sloecentrale.com/;WRI;;;;2385.628;;4813.588918
Diemen 33;;{J};Netherlands;52.3389;5.0213;1;1995;;Vattenfall;684;;Gas;;;;Vattenfall;WRI1019310;http://powerplants.vattenfall.com/diemen;GEODB;;;;2276.51;;3784.476804
Delesto;;{J};Netherlands;53.3185;6.9544;1;;;TenneT;530;;Gas;;;;TenneT;WRI1005506;http://energieinfo.tennet.org/Production/InstalledCapacity.aspx;GEODB;;;;;;2932.416237
ELSTA;;{J};Netherlands;51.3331;3.7787;1;;;TenneT;456;;Gas;;;;TenneT;WRI1005509;http://energieinfo.tennet.org/Production/InstalledCapacity.aspx;GEODB;;;;;;2522.984536
Rijnmond II;;{J};Netherlands;51.8902;4.3552;1;;;TenneT;427;;Gas;;;;TenneT;WRI1005515;http://energieinfo.tennet.org/Production/InstalledCapacity.aspx;GEODB;;;;;;2362.531572
HARCULO;;{J};Netherlands;52.468;6.1088;1;;;GDF Suez;349;;Gas;;;;GDF Suez;WRI1019306;https://www.google.com/url?sa=t&rct=j&q=&esrc=s&source=web&cd=3&ved=0ahUKEwilnu-T0aXOAhUBjz4KHT5VCjYQFggsMAI&url=http%3A%2F%2Fwww.engie.com%2Fwp-content%2Fuploads%2F2012%2F08%2FGDF_SUEZ_power_asset_table_vdef.xls&usg=AFQjCNHSG0cjbY0ZCS761mkpSWj0Z6E2zA&sig2=v45V3Rq0dF8CVwsH9bx9OQ&cad=rja;GEODB;;;;;;1930.968428
Centrale Merwedekanaal;;{J};Netherlands;52.1017;5.0794;1;;;TenneT;227;;Gas;;;;TenneT;WRI1005499;http://energieinfo.tennet.org/Production/InstalledCapacity.aspx;GEODB;;;;0;;1255.959407
Ijmond;;{J};Netherlands;52.4758;4.6048;1;1997;;Vattenfall;114;;Gas;;;;Vattenfall;WRI1019313;http://powerplants.vattenfall.com/ijmond;GEODB;;;;;;630.746134
EC Wè?ocè?awek;;{J};Poland;52.7074;18.9589;1;;;ENTSOE;491;;Gas;;;;;WRI1019049;https://transparency.entsoe.eu/generation/r2/installedCapacityPerProductionUnit/show;WRI;;;;2206.758;;2015.4453
EC Wrotk«¸w;;{J};Poland;51.215;22.5535;1;;;ENTSOE;231;;Gas;;;;;WRI1019058;https://transparency.entsoe.eu/generation/r2/installedCapacityPerProductionUnit/show;WRI;;;;1341.61;;948.2033898
Zielona G«¸ra;;{J};Poland;51.9513;15.488;1;;;ENTSOE;188;;Gas;;;;;WRI1019067;https://transparency.entsoe.eu/generation/r2/installedCapacityPerProductionUnit/show;GEODB;;;;;;771.6979969
Blachownia;;{J};Poland;50.3557;18.2912;1;;;ENTSOE;158;;Gas;;;;;WRI1019069;https://transparency.entsoe.eu/generation/r2/installedCapacityPerProductionUnit/show;WRI;;;;;;648.5546995
EC Nowa Sarzyna;;{J};Poland;50.3167;22.3238;1;;;ENTSOE;129;;Gas;;;;;WRI1019077;https://transparency.entsoe.eu/generation/r2/installedCapacityPerProductionUnit/show;WRI;;;;;;529.5161787
EC Rzesz«¸w;;{J};Poland;50.0658;22.0285;1;;;ENTSOE;101;;Gas;;;;;WRI1019087;https://transparency.entsoe.eu/generation/r2/installedCapacityPerProductionUnit/show;WRI;;;;;;414.5824345
Ribatejo;;{J};Portugal;39.0118;-8.9521;1;2005;;ENTSOE;1176;;Gas;;;;;WRI1023228;https://transparency.entsoe.eu/generation/r2/installedCapacityPerProductionUnit/show?name=&defaultValue=true&viewType=TABLE&areaType=BZN&atch=false&dateTime.dateTime=01.01.2016+00:00|UTC|YEAR&area.values=CTY|10YPT-REN------W!BZN|10YPT-REN------W&productionType.values=B01&productionType.values=B02&productionType.values=B03&productionType.values=B04&productionType.values=B05&productionType.values=B06&productionType.values=B07&productionType.values=B08&productionType.values=B09&productionType.values=B10&productionType.values=B11&productionType.values=B12&productionType.values=B13&productionType.values=B14&productionType.values=B20&productionType.values=B15&productionType.values=B16&productionType.values=B17&productionType.values=B18&productionType.values=B19&DataTables_Table_0_length=50#;WRI;;;;756.626;;2098.925046
Tapada do Outeiro;;{J};Portugal;41.07;-8.4587;1;;;ENTSOE;990;;Gas;;;;;WRI1023229;https://transparency.entsoe.eu/generation/r2/installedCapacityPerProductionUnit/show?name=&defaultValue=true&viewType=TABLE&areaType=BZN&atch=false&dateTime.dateTime=01.01.2016+00:00|UTC|YEAR&area.values=CTY|10YPT-REN------W!BZN|10YPT-REN------W&productionType.values=B01&productionType.values=B02&productionType.values=B03&productionType.values=B04&productionType.values=B05&productionType.values=B06&productionType.values=B07&productionType.values=B08&productionType.values=B09&productionType.values=B10&productionType.values=B11&productionType.values=B12&productionType.values=B13&productionType.values=B14&productionType.values=B20&productionType.values=B15&productionType.values=B16&productionType.values=B17&productionType.values=B18&productionType.values=B19&DataTables_Table_0_length=50#;WRI;;;;2055.733;;1766.952207
Pego C.C.;;{J};Portugal;39.4689;-8.1113;1;;;ENTSOE;837;;Gas;;;;;WRI1023230;https://transparency.entsoe.eu/generation/r2/installedCapacityPerProductionUnit/show?name=&defaultValue=true&viewType=TABLE&areaType=BZN&atch=false&dateTime.dateTime=01.01.2016+00:00|UTC|YEAR&area.values=CTY|10YPT-REN------W!BZN|10YPT-REN------W&productionType.values=B01&productionType.values=B02&productionType.values=B03&productionType.values=B04&productionType.values=B05&productionType.values=B06&productionType.values=B07&productionType.values=B08&productionType.values=B09&productionType.values=B10&productionType.values=B11&productionType.values=B12&productionType.values=B13&productionType.values=B14&productionType.values=B20&productionType.values=B15&productionType.values=B16&productionType.values=B17&productionType.values=B18&productionType.values=B19&DataTables_Table_0_length=50#;WRI;;;;600.351;;1493.877775
Lares;;{J};Portugal;40.1245;-8.775;1;2009;;ENTSOE;826;;Gas;;;;;WRI1023231;https://transparency.entsoe.eu/generation/r2/installedCapacityPerProductionUnit/show?name=&defaultValue=true&viewType=TABLE&areaType=BZN&atch=false&dateTime.dateTime=01.01.2016+00:00|UTC|YEAR&area.values=CTY|10YPT-REN------W!BZN|10YPT-REN------W&productionType.values=B01&productionType.values=B02&productionType.values=B03&productionType.values=B04&productionType.values=B05&productionType.values=B06&productionType.values=B07&productionType.values=B08&productionType.values=B09&productionType.values=B10&productionType.values=B11&productionType.values=B12&productionType.values=B13&productionType.values=B14&productionType.values=B20&productionType.values=B15&productionType.values=B16&productionType.values=B17&productionType.values=B18&productionType.values=B19&DataTables_Table_0_length=50#;WRI;;;;1845.28;;1474.244973
TPP CCCC Petrom Brazi;;{J};Romania;44.8802;25.9988;1;2012;;ENTSOE;860;;Gas;;;;;WRI1019097;https://transparency.entsoe.eu/generation/r2/installedCapacityPerProductionUnit/show;GEODB;;;;;;2079.188544
TPP Iernut;;{J};Romania;46.4677;24.1833;1;;;ENTSOE;751;;Gas;;;;;WRI1019098;https://transparency.entsoe.eu/generation/r2/installedCapacityPerProductionUnit/show;GEODB;;;;;;1815.663484
TPP  Braila;;{J};Romania;45.166;27.9235;1;;;ENTSOE;413;;Gas;;;;;WRI1019101;https://transparency.entsoe.eu/generation/r2/installedCapacityPerProductionUnit/show;WRI;;;;;;998.4940334
TPP Galati;;{J};Romania;45.436;27.9814;1;;;ENTSOE;346;;Gas;;;;;WRI1019102;https://transparency.entsoe.eu/generation/r2/installedCapacityPerProductionUnit/show;GEODB;;;;;;836.5107399
TPP Bucuresti Vest;;{J};Romania;44.4233;25.979;1;;;ENTSOE;298;;Gas;;;;;WRI1019106;https://transparency.entsoe.eu/generation/r2/installedCapacityPerProductionUnit/show;GEODB;;;;;;720.4630072
TPP Bucuresti Sud;;{J};Romania;44.4233;25.979;1;;;ENTSOE;280;;Gas;;;;;WRI1019107;https://transparency.entsoe.eu/generation/r2/installedCapacityPerProductionUnit/show;GEODB;;;;;;676.9451074
TPP Brazi;;{J};Romania;44.8802;25.9988;1;2007;;ENTSOE;220;;Gas;;;;;WRI1019111;https://transparency.entsoe.eu/generation/r2/installedCapacityPerProductionUnit/show;GEODB;;;;;;531.8854415
TPP Progresu;;{J};Romania;44.372;26.1073;1;;;ENTSOE;184;;Gas;;;;;WRI1019116;https://transparency.entsoe.eu/generation/r2/installedCapacityPerProductionUnit/show;GEODB;;;;;;444.849642
Malzenice CCGT Power Plant Slovakia;;{J};Slovakia;48.4296;17.6978;1;;;GEODB;430;;Gas;;;;;GEODB0042638;http://globalenergyobservatory.org;GEODB;2017;;;;;956.2774725
PPC Bratislava CCGT CHP Power Plant Slovakia;;{J};Slovakia;48.1775;17.1548;1;;;GEODB;218;;Gas;;;;;GEODB0042640;http://globalenergyobservatory.org;GEODB;2017;;;;;484.8104396
Levice CCGT CHP Power Plant Slovakia;;{J};Slovakia;48.2022;18.597;1;;;GEODB;80;;Gas;;;;;GEODB0042639;http://globalenergyobservatory.org;GEODB;2017;;;;;177.9120879
Brestanica (TEB);;{J};Slovenia;45.9975;15.4796;1;;;ENTSOE;297;;Gas;;;;;WRI1022411;https://transparency.entsoe.eu/generation/r2/installedCapacityPerProductionUnit/show;GEODB;;;;9.466;;374
BESOS  GRUPO 5;;{J};Spain;41.4196;2.2294;1;2010;;Red El«∏ctrica de Espa«Òa;1670.81;;Gas;;;;ENDESA GENERACION S.A.;WRI1006249;http://www.ree.es/en/statistical-data-of-spanish-electrical-system/annual-report/preliminary-report-spanish-electricity-system-2015;GEODB;;;;;;3019.372543
ARCOS DE LA FRONTERA GRUPO 1;;{J};Spain;36.6721;-5.8164;1;2005;;Red El«∏ctrica de Espa«Òa;1585.39;;Gas;;;;IBERDROLA GENERACION  S.A.;WRI1006203;http://www.ree.es/en/statistical-data-of-spanish-electrical-system/annual-report/preliminary-report-spanish-electricity-system-2015;GEODB;;;;;;2865.007413
CARTAGENA GRUPO 1;;{J};Spain;37.5732;-0.9392;1;2006;;Red El«∏ctrica de Espa«Òa;1248.82;;Gas;;;;GAS NATURAL FENOSA GENERACION  S.L.U.;WRI1006308;http://www.ree.es/en/statistical-data-of-spanish-electrical-system/annual-report/preliminary-report-spanish-electricity-system-2015;GEODB;;;;;;2256.781333
CCC SAGUNTO  GRUPO 2;;{J};Spain;39.6426;-0.2344;1;2007;;Red El«∏ctrica de Espa«Òa;1232.19;;Gas;;;;GAS NATURAL FENOSA GENERACION  S.L.U.;WRI1006323;http://www.ree.es/en/statistical-data-of-spanish-electrical-system/annual-report/preliminary-report-spanish-electricity-system-2015;GEODB;;;;;;2226.728744
ESCOMBRERAS GRUPO 1;;{J};Spain;7.5732;-0.9392;1;2006;;Red El«∏ctrica de Espa«Òa;1199.25;;Gas;;;;GDF SUEZ CARTAGENA ENERGIA  S.L.;WRI1006467;http://www.ree.es/en/statistical-data-of-spanish-electrical-system/annual-report/preliminary-report-spanish-electricity-system-2015;WRI;;;;;;2167.201849
PALOS DE LA FRONTERA GRUPO 1;;{J};Spain;37.1843;-6.8857;1;2004;;Red El«∏ctrica de Espa«Òa;1167;;Gas;;;;GAS NATURAL FENOSA GENERACION  S.L.U.;WRI1007283;http://www.ree.es/en/statistical-data-of-spanish-electrical-system/annual-report/preliminary-report-spanish-electricity-system-2015;GEODB;;;;;;2108.921875
PUERTO DE BARCELONA  GRUPO 2;;{J};Spain;41.3366;2.1594;1;2010;;Red El«∏ctrica de Espa«Òa;866.3;;Gas;;;;GAS NATURAL FENOSA GENERACION  S.L.U.;WRI1007821;http://www.ree.es/en/statistical-data-of-spanish-electrical-system/annual-report/preliminary-report-spanish-electricity-system-2015;GEODB;;;;;;1565.517583
CTCC AS PONTES  GRUPO 5;;{J};Spain;43.4451;-7.8621;1;2008;;Red El«∏ctrica de Espa«Òa;855.67;;Gas;;;;ENDESA GENERACION S.A.;WRI1006410;http://www.ree.es/en/statistical-data-of-spanish-electrical-system/annual-report/preliminary-report-spanish-electricity-system-2015;GEODB;;;;;;1546.307781
CTCC SOTO DE RIBERA  GRUPO 5;;{J};Spain;43.3161;-5.8777;1;2011;;Red El«∏ctrica de Espa«Òa;854.17;;Gas;;;;HIDROELECTRICA DEL CANTABRICO  S.A.;WRI1006418;http://www.ree.es/en/statistical-data-of-spanish-electrical-system/annual-report/preliminary-report-spanish-electricity-system-2015;GEODB;;;;;;1543.597084
CTCC CASTELLON  GRUPO 4;;{J};Spain;39.9592;-0.001;1;2008;;Red El«∏ctrica de Espa«Òa;839.35;;Gas;;;;IBERDROLA GENERACION  S.A.;WRI1006413;http://www.ree.es/en/statistical-data-of-spanish-electrical-system/annual-report/preliminary-report-spanish-electricity-system-2015;GEODB;;;;;;1516.815403
CCC BAHIA DE ALGECIRAS;;{J};Spain;36.1829;-5.3905;1;2009;;Red El«∏ctrica de Espa«Òa;820.536;;Gas;;;;VIESGO GENERACION  S.L.;WRI1006322;http://www.ree.es/en/statistical-data-of-spanish-electrical-system/annual-report/preliminary-report-spanish-electricity-system-2015;GEODB;;;;;;1482.81604
CTCC PLANA DEL VENT 2;;{J};Spain;40.9596;0.8692;1;2007;;Red El«∏ctrica de Espa«Òa;819.03;;Gas;;;;ALPIQ ENERGIA ESPANA  S.A.U.;WRI1006416;http://www.ree.es/en/statistical-data-of-spanish-electrical-system/annual-report/preliminary-report-spanish-electricity-system-2015;GEODB;;;;;;1480.094501
CTCC ESCOMBRERAS;;{J};Spain;37.5732;-0.9392;1;2006;;Red El«∏ctrica de Espa«Òa;815.64;;Gas;;;;IBERDROLA GENERACION  S.A.;WRI1006415;http://www.ree.es/en/statistical-data-of-spanish-electrical-system/annual-report/preliminary-report-spanish-electricity-system-2015;GEODB;;;;;;1473.968327
ESCATRON;;{J};Spain;41.2977;-0.3376;1;2008;;Red El«∏ctrica de Espa«Òa;804.36;;Gas;;;;VIESGO GENERACION  S.L.;WRI1006465;http://www.ree.es/en/statistical-data-of-spanish-electrical-system/annual-report/preliminary-report-spanish-electricity-system-2015;GEODB;;;;;;1453.583889
TARRAGONA;;{J};Spain;41.1081;1.1912;1;2004;;Red El«∏ctrica de Espa«Òa;802.84;;Gas;;;;TARRAGONA POWER  S.L.;WRI1007956;http://www.ree.es/en/statistical-data-of-spanish-electrical-system/annual-report/preliminary-report-spanish-electricity-system-2015;GEODB;;;;;;1450.83705
CASTEJON  GRUPO 2;;{J};Spain;42.1718;-1.6773;1;2007;;Red El«∏ctrica de Espa«Òa;797.41;;Gas;;;;HIDROELECTRICA DEL CANTABRICO  S.A.;WRI1006317;http://www.ree.es/en/statistical-data-of-spanish-electrical-system/annual-report/preliminary-report-spanish-electricity-system-2015;GEODB;;;;;;1441.024329
SAN ROQUE GRUPO 2;;{J};Spain;36.1955;-5.4131;1;2002;;Red El«∏ctrica de Espa«Òa;791.68;;Gas;;;;ENDESA GENERACION S.A.;WRI1007879;http://www.ree.es/en/statistical-data-of-spanish-electrical-system/annual-report/preliminary-report-spanish-electricity-system-2015;GEODB;;;;;;1430.669468
CICLO COMBINADO DE CASTELNOU;;{J};Spain;41.2167;-0.2928;1;2006;;Red El«∏ctrica de Espa«Òa;790.68;;Gas;;;;CASTELNOU ENERGIA  S.L.;WRI1006355;http://www.ree.es/en/statistical-data-of-spanish-electrical-system/annual-report/preliminary-report-spanish-electricity-system-2015;GEODB;;;;;;1428.862337
AMOREBIETA;;{J};Spain;43.2347;-2.7497;1;2005;;Red El«∏ctrica de Espa«Òa;786.42;;Gas;;;;BIZKAIA ENERGIA  S.L.U.;WRI1006189;http://www.ree.es/en/statistical-data-of-spanish-electrical-system/annual-report/preliminary-report-spanish-electricity-system-2015;GEODB;;;;;;1421.163959
ARRUBAL GRUPO 1;;{J};Spain;42.4194;-2.2511;1;2005;;Red El«∏ctrica de Espa«Òa;784.7;;Gas;;;;CONTOUR GLOBAL LA RIOJA  S.L.;WRI1006210;http://www.ree.es/en/statistical-data-of-spanish-electrical-system/annual-report/preliminary-report-spanish-electricity-system-2015;GEODB;;;;;;1418.055694
CASTELLON;;{J};Spain;39.9592;-0.001;1;2002;;Red El«∏ctrica de Espa«Òa;782;;Gas;;;;IBERDROLA GENERACION  S.A.;WRI1006318;http://www.ree.es/en/statistical-data-of-spanish-electrical-system/annual-report/preliminary-report-spanish-electricity-system-2015;GEODB;;;;;;1413.17644
CAMPO DE GIBRALTAR GRUPO 20;;{J};Spain;36.1834;-5.3933;1;2004;;Red El«∏ctrica de Espa«Òa;780.66;;Gas;;;;PUENTE MAYORGA GENERACION  S.L.U.;WRI1006292;http://www.ree.es/en/statistical-data-of-spanish-electrical-system/annual-report/preliminary-report-spanish-electricity-system-2015;GEODB;;;;;;1410.754885
ACECA  GRUPO 4;;{J};Spain;39.9427;-3.8548;1;2006;;Red El«∏ctrica de Espa«Òa;758.74;;Gas;;;;GAS NATURAL FENOSA GENERACION  S.L.U.;WRI1006159;http://www.ree.es/en/statistical-data-of-spanish-electrical-system/annual-report/preliminary-report-spanish-electricity-system-2015;GEODB;;;;;;1371.142573
BAHIA DE ALGECIRAS I;;{J};Spain;36.1829;-5.3905;1;1970;;Red El«∏ctrica de Espa«Òa;731;;Gas;;;;VIESGO GENERACION  S.L.;WRI1006223;http://www.ree.es/en/statistical-data-of-spanish-electrical-system/annual-report/preliminary-report-spanish-electricity-system-2015;GEODB;;;;;;1321.012759
GRANADILLA 1  GAS 1;;{J};Spain;28.0863;-16.4939;1;1990;;Red El«∏ctrica de Espa«Òa;693.34;;Oil;Gas;;;UNION ELECTRICA DE CANARIAS GENERACION  S.A.U.;WRI1006506;http://www.ree.es/en/statistical-data-of-spanish-electrical-system/annual-report/preliminary-report-spanish-electricity-system-2015;WRI;;;;;;2097.995368
BARRANCO DE TIRAJANA 7  VAPOR 3 (CC1);;{J};Spain;27.8045;-15.4387;1;2008;;Red El«∏ctrica de Espa«Òa;646.26;;Oil;Gas;;;UNION ELECTRICA DE CANARIAS GENERACION  S.A.U.;WRI1006230;http://www.ree.es/en/statistical-data-of-spanish-electrical-system/annual-report/preliminary-report-spanish-electricity-system-2015;WRI;;;;;;1955.534783
SON REUS 3  TURBINA DE GAS N 3;;{J};Spain;39.65;2.6807;1;2000;;Red El«∏ctrica de Espa«Òa;563.75;;Oil;Gas;;;GAS Y ELECTRICIDAD GENERACION  S.A.U;WRI1007932;http://www.ree.es/en/statistical-data-of-spanish-electrical-system/annual-report/preliminary-report-spanish-electricity-system-2015;WRI;;;;;;1705.865648
CAS TRESORER TG3  CC2;;{J};Spain;39.5672;2.6895;1;2009;;Red El«∏ctrica de Espa«Òa;429;;Gas;;;;ENDESA GENERACION S.A.;WRI1006309;http://www.ree.es/en/statistical-data-of-spanish-electrical-system/annual-report/preliminary-report-spanish-electricity-system-2015;GEODB;;;;;;775.2591981
CTCC CASTEJON  GRUPO 1;;{J};Spain;42.1718;-1.6773;1;2002;;Red El«∏ctrica de Espa«Òa;424.91;;Gas;;;;HIDROELECTRICA DEL CANTABRICO  S.A.;WRI1006412;http://www.ree.es/en/statistical-data-of-spanish-electrical-system/annual-report/preliminary-report-spanish-electricity-system-2015;GEODB;;;;;;767.8680323
MALA1 (CTCC MALAGA);;{J};Spain;36.7495;-4.5631;1;2009;;Red El«∏ctrica de Espa«Òa;415.509;;Gas;;;;GAS NATURAL FENOSA GENERACION  S.L.U.;WRI1006664;http://www.ree.es/en/statistical-data-of-spanish-electrical-system/annual-report/preliminary-report-spanish-electricity-system-2015;GEODB;;;;;;750.8791938
SANTURCE  GRUPO 4;;{J};Spain;43.34;-3.0539;1;2005;;Red El«∏ctrica de Espa«Òa;396.4;;Gas;;;;HIDROELECTRICA IBERICA  S.L.;WRI1007889;http://www.ree.es/en/statistical-data-of-spanish-electrical-system/annual-report/preliminary-report-spanish-electricity-system-2015;GEODB;;;;;;716.3467276
CTCC SABON  GRUPO 3;;{J};Spain;43.329;-8.503;1;2008;;Red El«∏ctrica de Espa«Òa;391.31;;Gas;;;;GAS NATURAL FENOSA GENERACION  S.L.U.;WRI1006417;http://www.ree.es/en/statistical-data-of-spanish-electrical-system/annual-report/preliminary-report-spanish-electricity-system-2015;GEODB;;;;;;707.1484308
CRISTOBAL COLON;;{J};Spain;37.2156;-6.943;1;2006;;Red El«∏ctrica de Espa«Òa;390.94;;Gas;;;;ENDESA GENERACION S.A.;WRI1006404;http://www.ree.es/en/statistical-data-of-spanish-electrical-system/annual-report/preliminary-report-spanish-electricity-system-2015;GEODB;;;;;;706.4797923
CTCC ESCATRON;;{J};Spain;41.2977;-0.3376;1;2007;;Red El«∏ctrica de Espa«Òa;274.635;;Gas;;;;GLOBAL 3 COMBI  S.L.U.;WRI1006414;http://www.ree.es/en/statistical-data-of-spanish-electrical-system/annual-report/preliminary-report-spanish-electricity-system-2015;GEODB;;;;;;496.3014216
SNIACE;;{J};Spain;42.5273;-8.0086;1;;;Red El«∏ctrica de Espa«Òa;93;;Gas;;;;SNIACE  S.A.;WRI1007923;http://www.ree.es/en/statistical-data-of-spanish-electrical-system/annual-report/preliminary-report-spanish-electricity-system-2015;CARMA;;;;;;168.0631828
REPSOL PUERTOLLANO;;{J};Spain;38.6478;-4.1214;1;1994;;Red El«∏ctrica de Espa«Òa;80.5;;Gas;;;;REPSOL PETROLEO  S.A.;WRI1007845;http://www.ree.es/en/statistical-data-of-spanish-electrical-system/annual-report/preliminary-report-spanish-electricity-system-2015;GEODB;;;;;;145.4740453
PAPELERA GUIPUZCOANA;;{J};Spain;43.2596;-1.9688;1;;;Red El«∏ctrica de Espa«Òa;79.918;;Gas;;;;PAPELERA GUIPUZCOANA DE ZICUNAGA SA;WRI1007287;http://www.ree.es/en/statistical-data-of-spanish-electrical-system/annual-report/preliminary-report-spanish-electricity-system-2015;WRI;;;;;;144.4222951
ENCE ENERGIA HUELVA  S.L.U. $$;;{J};Spain;37.2583;-6.9508;1;2012;;Red El«∏ctrica de Espa«Òa;50;;Gas;;;;ENCE ENERGIA HUELVA S.L.U.;WRI1006455;http://www.ree.es/en/statistical-data-of-spanish-electrical-system/annual-report/preliminary-report-spanish-electricity-system-2015;CARMA;;;;;;90.35654989
MAHON TG4;;{J};Spain;39.8964;4.2597;1;2008;;Red El«∏ctrica de Espa«Òa;50;;Gas;;;;GAS Y ELECTRICIDAD GENERACION  S.A.U;WRI1006662;http://www.ree.es/en/statistical-data-of-spanish-electrical-system/annual-report/preliminary-report-spanish-electricity-system-2015;CARMA;;;;;;90.35654989
COGENERACION MOTRIL;;{J};Spain;36.7334;-3.5413;1;2001;;Red El«∏ctrica de Espa«Òa;48.8;;Gas;;;;COGENERACION MOTRIL  S.A.;WRI1006377;http://www.ree.es/en/statistical-data-of-spanish-electrical-system/annual-report/preliminary-report-spanish-electricity-system-2015;CARMA;;;;;;88.1879927
NEUMATICOS MICHELIN-VITORIA;;{J};Spain;42.85;-2.6667;1;;;Red El«∏ctrica de Espa«Òa;47;;Gas;;;;ENERGYWORKS VIT-VALL  S.L.;WRI1006705;http://www.ree.es/en/statistical-data-of-spanish-electrical-system/annual-report/preliminary-report-spanish-electricity-system-2015;CARMA;;;;;;84.9351569
MICHELIN VALLADOLID $$;;{J};Spain;41.6552;-4.7237;1;;;Red El«∏ctrica de Espa«Òa;46;;Gas;;;;ENERGYWORKS VIT-VALL  S.L.;WRI1006678;http://www.ree.es/en/statistical-data-of-spanish-electrical-system/annual-report/preliminary-report-spanish-electricity-system-2015;CARMA;;;;;;83.1280259
TORTOSA ENERGIA;;{J};Spain;40.8125;0.5216;1;2011;;Red El«∏ctrica de Espa«Òa;39.58;;Gas;;;;TORTOSA ENERGIA  SA;WRI1007975;http://www.ree.es/en/statistical-data-of-spanish-electrical-system/annual-report/preliminary-report-spanish-electricity-system-2015;CARMA;;;;;;71.5262449
MICHELIN ARANDA;;{J};Spain;41.6704;-3.6892;1;2003;;Red El«∏ctrica de Espa«Òa;31.866;;Gas;;;;ENERGYWORKS ARANDA  S.L.;WRI1006677;http://www.ree.es/en/statistical-data-of-spanish-electrical-system/annual-report/preliminary-report-spanish-electricity-system-2015;CARMA;;;;;;57.58603638
ENCE - PONTEVEDRA $$;;{J};Spain;42.4167;-8.6667;1;2008;;Red El«∏ctrica de Espa«Òa;26.62;;Gas;;;;GRUPO EMPRESARIAL ENCE  S.A.;WRI1006454;http://www.ree.es/en/statistical-data-of-spanish-electrical-system/annual-report/preliminary-report-spanish-electricity-system-2015;CARMA;;;;;;48.10582716
COGENERACION NAVIA;;{J};Spain;43.5354;-6.7193;1;;;Red El«∏ctrica de Espa«Òa;24;;Gas;;;;INDUSTRIAS LACTEAS ASTURIANAS  S.A.;WRI1006378;http://www.ree.es/en/statistical-data-of-spanish-electrical-system/annual-report/preliminary-report-spanish-electricity-system-2015;CARMA;;;;;;43.37114395
FINSA-SANTIAGO;;{J};Spain;42.8805;-8.5457;1;2002;;Red El«∏ctrica de Espa«Òa;23.96;;Gas;;;;COGENERACION DEL NOROESTE  S.L.;WRI1006480;http://www.ree.es/en/statistical-data-of-spanish-electrical-system/annual-report/preliminary-report-spanish-electricity-system-2015;CARMA;;;;;;43.29885871
TRUCHAS DEL CINCA;;{J};Spain;42.1519;0.2225;1;1999;;Red El«∏ctrica de Espa«Òa;23.92;;Gas;;;;NEO SC EL GRADO  SLU;WRI1007994;http://www.ree.es/en/statistical-data-of-spanish-electrical-system/annual-report/preliminary-report-spanish-electricity-system-2015;CARMA;;;;;;43.22657347
TORRASPAPEL-MONTANANESA;;{J};Spain;41.6561;-0.8773;1;;;Red El«∏ctrica de Espa«Òa;22;;Gas;;;;TORRASPAPEL  S.A;WRI1007973;http://www.ree.es/en/statistical-data-of-spanish-electrical-system/annual-report/preliminary-report-spanish-electricity-system-2015;CARMA;;;;;;39.75688195
ECOCARBURANTES;;{J};Spain;37.6051;-0.9862;1;2012;;Red El«∏ctrica de Espa«Òa;21.666;;Gas;;;;ECOCARBURANTES ESPANOLES S.A.;WRI1006426;http://www.ree.es/en/statistical-data-of-spanish-electrical-system/annual-report/preliminary-report-spanish-electricity-system-2015;CARMA;;;;;;39.1533002
PLANTA SECADO TERMICO DE LODOS E.R.A.R. DE BUTARQUE;;{J};Spain;37.5624;-5.1254;1;;;Red El«∏ctrica de Espa«Òa;18;;Gas;;;;SUFI  SA (70%) Y CADAGUA  SA (30%);WRI1007779;http://www.ree.es/en/statistical-data-of-spanish-electrical-system/annual-report/preliminary-report-spanish-electricity-system-2015;GEODB;;;;;;32.52835796
AZULIBER;;{J};Spain;40.0667;-0.2;1;;;Red El«∏ctrica de Espa«Òa;17.763;;Gas;;;;AZULIBER 1 S.L.;WRI1006221;http://www.ree.es/en/statistical-data-of-spanish-electrical-system/annual-report/preliminary-report-spanish-electricity-system-2015;CARMA;;;;;;32.10006792
GARONA VERDA;;{J};Spain;42.7753;-3.2073;1;1999;;Red El«∏ctrica de Espa«Òa;14.95;;Gas;;;;NEO SC ARAN  SLU;WRI1006494;http://www.ree.es/en/statistical-data-of-spanish-electrical-system/annual-report/preliminary-report-spanish-electricity-system-2015;CARMA;;;;;;27.01660842
COTASA;;{J};Spain;40.0667;-0.2;1;;;Red El«∏ctrica de Espa«Òa;14.071;;Gas;;;;TIERRA ATOMIZADA  S.A.;WRI1006403;http://www.ree.es/en/statistical-data-of-spanish-electrical-system/annual-report/preliminary-report-spanish-electricity-system-2015;CARMA;;;;;;25.42814027
GUASCOR;;{J};Spain;42.2793;-1.7463;1;;;Red El«∏ctrica de Espa«Òa;13.5;;Gas;;;;GUASCOR INVESTIGACION Y DESARROLLO;WRI1006523;http://www.ree.es/en/statistical-data-of-spanish-electrical-system/annual-report/preliminary-report-spanish-electricity-system-2015;CARMA;;;;;;24.39626847
COLORTEX;;{J};Spain;38.8167;-0.6167;1;;;Red El«∏ctrica de Espa«Òa;12.68;;Gas;;;;COLORTEX  S.A.;WRI1006390;http://www.ree.es/en/statistical-data-of-spanish-electrical-system/annual-report/preliminary-report-spanish-electricity-system-2015;CARMA;;;;;;22.91442105
GENSABON;;{J};Spain;43.3048;-8.5075;1;1999;;Red El«∏ctrica de Espa«Òa;12;;Gas;;;;GENSABON  S.A.;WRI1006500;http://www.ree.es/en/statistical-data-of-spanish-electrical-system/annual-report/preliminary-report-spanish-electricity-system-2015;CARMA;;;;;;21.68557197
FERTIMOLINA;;{J};Spain;40.8436;-1.8876;1;2000;;Red El«∏ctrica de Espa«Òa;10;;Gas;;;;FERTIMOLINA  S.A.;WRI1006477;http://www.ree.es/en/statistical-data-of-spanish-electrical-system/annual-report/preliminary-report-spanish-electricity-system-2015;CARMA;;;;;;18.07130998
NUFRI;;{J};Spain;41.6333;0.9;1;2005;;Red El«∏ctrica de Espa«Òa;10;;Gas;;;;SAT NUM.1596 NUFRI;WRI1006706;http://www.ree.es/en/statistical-data-of-spanish-electrical-system/annual-report/preliminary-report-spanish-electricity-system-2015;CARMA;;;;;;18.07130998
SALINAS BRAS DEL PORT  S.A.;;{J};Spain;42.5741;0.1824;1;;;Red El«∏ctrica de Espa«Òa;10;;Gas;;;;BRAS DEL PORT  S.A.;WRI1007864;http://www.ree.es/en/statistical-data-of-spanish-electrical-system/annual-report/preliminary-report-spanish-electricity-system-2015;CARMA;;;;;;18.07130998
TIOXIDE EUROPE S.L.;;{J};Spain;37.2583;-6.9508;1;2009;;Red El«∏ctrica de Espa«Òa;10;;Gas;;;;TIOXIDE EUROPE S.L.;WRI1007968;http://www.ree.es/en/statistical-data-of-spanish-electrical-system/annual-report/preliminary-report-spanish-electricity-system-2015;CARMA;;;;;;18.07130998
V«œrme;;{J};Sweden;59.3532;18.0985;1;1980;;Fortum Sweden;639;;Gas;;;;Fortum;WRI1019441;http://www.fortum.com/en/corporation/fortumworldwide/sweden/pages/default.aspx;WRI;;;;;;196.9455224
Nya «?resundsverket;;{J};Sweden;55.6261;13.0404;1;;;E.ON;440;;Gas;;;;;WRI1029978;https://www.eon.se/oresundsverketeng;GEODB;;;;;;135.6119403
Rya;;{J};Sweden;57.6924;11.8905;1;;;Goteborg Energi;261;;Gas;;;;;WRI1029979;http://www.goteborgenergi.se/English/About_Goteborg_Energi%20(see%20annual%20reports);GEODB;;;;;;80.44253731
TEXT;TEXT;TEXT;TEXT;REAL;REAL;REAL;REAL;REAL;TEXT;[MW];[MW];TEXT;TEXT;TEXT;TEXT;TEXT;TEXT;TEXT;TEXT;REAL;REAL;REAL;REAL;REAL;REAL
Pembroke;;{J};United Kingdom;51.685;-4.99;1;;;Department for Business Energy & Industrial Strategy;2180;;Gas;;;;RWE Npower Plc;GBR1000372;https://www.gov.uk/government/collections/digest-of-uk-energy-statistics-dukes;;;;;;;
Staythorpe C;;{J};United Kingdom;53.073;-0.8585;1;;;Department for Business Energy & Industrial Strategy;1772;;Gas;;;;RWE Npower Plc;GBR1000373;https://www.gov.uk/government/collections/digest-of-uk-energy-statistics-dukes;;;;;;;
Didcot B;;{J};United Kingdom;51.6246;-1.2683;1;;;Department for Business Energy & Industrial Strategy;1470;;Gas;;;;RWE Npower Plc;GBR1000369;https://www.gov.uk/government/collections/digest-of-uk-energy-statistics-dukes;;;;;;;
Grain CHP;;{J};United Kingdom;51.4444;0.7114;1;;;Department for Business Energy & Industrial Strategy;1404;;Cogeneration;Gas;;;Uniper UK Limited;GBR1000495;https://www.gov.uk/government/collections/digest-of-uk-energy-statistics-dukes;;;;;;;
Connahs Quay;;{J};United Kingdom;53.2317;-3.0815;1;;;Department for Business Energy & Industrial Strategy;1380;;Gas;;;;Uniper UK Limited;GBR1000492;https://www.gov.uk/government/collections/digest-of-uk-energy-statistics-dukes;;;;;;;
West Burton CCGT;;{J};United Kingdom;53.3631;-0.7976;1;;;Department for Business Energy & Industrial Strategy;1332;;Gas;;;;EDF Energy;GBR1000141;https://www.gov.uk/government/collections/digest-of-uk-energy-statistics-dukes;;;;;;;
South Humber Bank;;{J};United Kingdom;53.6008;-0.1446;1;;;Department for Business Energy & Industrial Strategy;1310;;Gas;;;;Centrica;GBR1000074;https://www.gov.uk/government/collections/digest-of-uk-energy-statistics-dukes;;;;;;;
VPI Immingham;;{J};United Kingdom;53.6366;-0.2395;1;;;Department for Business Energy & Industrial Strategy;1240;;Cogeneration;Gas;;;VPI Immingham LLP;GBR1000517;https://www.gov.uk/government/collections/digest-of-uk-energy-statistics-dukes;;;;;;;
Langage;;{J};United Kingdom;50.3882;-4.0118;1;;;Department for Business Energy & Industrial Strategy;905;;Gas;;;;Centrica;GBR1000073;https://www.gov.uk/government/collections/digest-of-uk-energy-statistics-dukes;;;;;;;
Severn Power;;{J};United Kingdom;51.5475;-2.975;1;;;Department for Business Energy & Industrial Strategy;850;;Gas;;;;MPF Operations Limited;GBR1000313;https://www.gov.uk/government/collections/digest-of-uk-energy-statistics-dukes;;;;;;;
Marchwood;;{J};United Kingdom;50.8998;-1.4384;1;;;Department for Business Energy & Industrial Strategy;842;;Gas;;;;Marchwood Power Limited;GBR1000311;https://www.gov.uk/government/collections/digest-of-uk-energy-statistics-dukes;;;;;;;
Rocksavage;;{J};United Kingdom;53.3147;-2.7232;1;;;Department for Business Energy & Industrial Strategy;810;;Gas;;;;Intergen;GBR1000212;https://www.gov.uk/government/collections/digest-of-uk-energy-statistics-dukes;;;;;;;
Damhead Creek;;{J};United Kingdom;51.4249;0.6014;1;;;Department for Business Energy & Industrial Strategy;805;;Gas;;;;Scottish Power: Thermal;GBR1000465;https://www.gov.uk/government/collections/digest-of-uk-energy-statistics-dukes;;;;;;;
Coryton;;{J};United Kingdom;51.5119;0.5079;1;;;Department for Business Energy & Industrial Strategy;800;;Gas;;;;Intergen;GBR1000211;https://www.gov.uk/government/collections/digest-of-uk-energy-statistics-dukes;;;;;;;
